name,city,address,region,is_active,latitude,longitude,source_url,banki_office_id
Сбербанк — Дополнительный офис №8644/0262,Алейск,"Алтайский край, г Алейск, ул Советская, д 102",Алтайский край,true,52.494038,82.777315,https://www.banki.ru/banks/bank/sberbank/branches/altayskiy_kray/aleysk/,13290894
Сбербанк — Дополнительный офис №8644/0591,Алексеевка,"Алтайский край, Благовещенский р-н, с Алексеевка, ул Центральная, зд 12",Алтайский край,true,52.891913,80.539005,https://www.banki.ru/banks/bank/sberbank/branches/altayskiy_kray/alekseevka_(blagovesschenskiy_r-n)/,13291063
Сбербанк — Дополнительный офис №8644/0396,Аллак,"Алтайский край, Каменский р-н, с Аллак, ул Тамбовская, влд 4",Алтайский край,true,53.79847,81.529056,https://www.banki.ru/banks/bank/sberbank/branches/altayskiy_kray/allak/,13290965
Сбербанк — Дополнительный офис №8644/0564,Алтайское,"Алтайский край, с Алтайское, ул Ключевая, влд 45А",Алтайский край,true,51.95169,85.338333,https://www.banki.ru/banks/bank/sberbank/branches/altayskiy_kray/altayskoe/,13291049
Сбербанк — Дополнительный офис №8644/0770,Анисимово,"Алтайский край, Тальменский р-н, с Анисимово, ул Тальменская, зд 13",Алтайский край,true,54.022821,83.62227,https://www.banki.ru/banks/bank/sberbank/branches/altayskiy_kray/anisimovo/,13291158
Сбербанк — Дополнительный офис №8644/0582,Антоньевка,"Алтайский край, Петропавловский р-н, с Антоньевка, ул Советская, влд 20",Алтайский край,true,51.995233,83.973743,https://www.banki.ru/banks/bank/sberbank/branches/altayskiy_kray/anton~evka/,13291059
Сбербанк — Дополнительный офис №8644/0411,Баево,"Алтайский край, с Баево, ул Ленина, зд 50А",Алтайский край,true,53.26583,80.774602,https://www.banki.ru/banks/bank/sberbank/branches/altayskiy_kray/baevo/,13290970
Сбербанк — Дополнительный офис №8644/0703,Барановка,"Алтайский край, Змеиногорский р-н, с Барановка, ул Центральная, зд 51",Алтайский край,true,51.053724,82.209808,https://www.banki.ru/banks/bank/sberbank/branches/altayskiy_kray/baranovka/,13291117
Сбербанк — Дополнительный офис №8644/0104,Барнаул,"г Барнаул, ул Германа Титова, д 17",Алтайский край,true,53.382352,83.72372,https://www.banki.ru/banks/bank/sberbank/branches/barnaul/,13290848
Сбербанк — Дополнительный офис №8644/0118,Барнаул,"г Барнаул, ул Новосибирская, д 32",Алтайский край,true,53.305935,83.613278,https://www.banki.ru/banks/bank/sberbank/branches/barnaul/,13290849
Сбербанк — Дополнительный офис №8644/0128,Барнаул,"г Барнаул, ул Малахова, д 64Б",Алтайский край,true,53.365571,83.702692,https://www.banki.ru/banks/bank/sberbank/branches/barnaul/,13290850
Сбербанк — Дополнительный офис №8644/0130,Барнаул,"г Барнаул, ул Северо-Западная, д 54",Алтайский край,true,53.371784,83.744958,https://www.banki.ru/banks/bank/sberbank/branches/barnaul/,13290851
Сбербанк — Дополнительный офис №8644/0136,Барнаул,"г Барнаул, ул Георгиева, д 14В",Алтайский край,true,53.351205,83.682998,https://www.banki.ru/banks/bank/sberbank/branches/barnaul/,13290852
Сбербанк — Дополнительный офис №8644/0137,Барнаул,"г Барнаул, ул Юрина, зд 305А",Алтайский край,true,53.373494,83.667436,https://www.banki.ru/banks/bank/sberbank/branches/barnaul/,13290853
Сбербанк — Дополнительный офис №8644/0138,Барнаул,"г Барнаул, ул Малахова, д 77",Алтайский край,true,53.35861,83.702815,https://www.banki.ru/banks/bank/sberbank/branches/barnaul/,13290854
Сбербанк — Дополнительный офис №8644/0142,Барнаул,"г Барнаул, ул Малахова, д 128",Алтайский край,true,53.344288,83.694792,https://www.banki.ru/banks/bank/sberbank/branches/barnaul/,13290855
Сбербанк — Дополнительный офис №8644/0148,Барнаул,"г Барнаул, тракт Павловский, д 132",Алтайский край,true,53.344218,83.682987,https://www.banki.ru/banks/bank/sberbank/branches/barnaul/,13290856
Сбербанк — Дополнительный офис №8644/0152,Барнаул,"г Барнаул, ул Юрина, д 202В",Алтайский край,true,53.370682,83.687582,https://www.banki.ru/banks/bank/sberbank/branches/barnaul/,13290857
Сбербанк — Дополнительный офис №8644/0153,Барнаул,"г Барнаул, ул Балтийская, д 39",Алтайский край,true,53.334564,83.682112,https://www.banki.ru/banks/bank/sberbank/branches/barnaul/,13290858
Сбербанк — Дополнительный офис №8644/0160,Барнаул,"г Барнаул, пр-кт Ленина, д 96Е",Алтайский край,true,53.35964,83.765148,https://www.banki.ru/banks/bank/sberbank/branches/barnaul/,13290859
Сбербанк — Дополнительный офис №8644/0162,Барнаул,"г Барнаул, ул Георгия Исакова, д 270",Алтайский край,true,53.368278,83.665219,https://www.banki.ru/banks/bank/sberbank/branches/barnaul/,13290860
Сбербанк — Дополнительный офис №8644/0172,Барнаул,"г Барнаул, пр-кт Красноармейский, влд 58А/1",Алтайский край,true,53.33748,83.77517,https://www.banki.ru/banks/bank/sberbank/branches/barnaul/,13290864
Сбербанк — Дополнительный офис №8644/0176,Барнаул,"г Барнаул, пр-кт Ленина, д 20",Алтайский край,true,53.336236,83.790216,https://www.banki.ru/banks/bank/sberbank/branches/barnaul/,13290866
Сбербанк — Дополнительный офис №8644/0182,Барнаул,"г Барнаул, рп Южный, ул Чайковского, д 29",Алтайский край,true,53.253338,83.690446,https://www.banki.ru/banks/bank/sberbank/branches/barnaul/,13290867
Сбербанк — Дополнительный офис №8644/0187,Барнаул,"г Барнаул, ул Северо-Западная, д 159",Алтайский край,true,53.35845,83.725558,https://www.banki.ru/banks/bank/sberbank/branches/barnaul/,13290868
Сбербанк — Дополнительный офис №8644/0192,Барнаул,"г Барнаул, пр-кт Строителей, д 10",Алтайский край,true,53.352765,83.765266,https://www.banki.ru/banks/bank/sberbank/branches/barnaul/,13290869
Сбербанк — Дополнительный офис №8644/0784,Барнаул,"г Барнаул, ул Попова, д 113",Алтайский край,true,53.3418,83.671378,https://www.banki.ru/banks/bank/sberbank/branches/barnaul/,13291164
Сбербанк — Дополнительный офис №8644/0794,Барнаул,"г Барнаул, пр-кт Комсомольский, д 106А",Алтайский край,true,53.349201,83.78493,https://www.banki.ru/banks/bank/sberbank/branches/barnaul/,13291166
Сбербанк — Дополнительный офис №8644/0801,Барнаул,"г Барнаул, тракт Павловский, д 297",Алтайский край,true,53.344996,83.65676,https://www.banki.ru/banks/bank/sberbank/branches/barnaul/,13291169
Сбербанк — СберПервый,Барнаул,"г Барнаул, пр-кт Красноармейский, д 15",Алтайский край,true,53.32735,83.784922,https://www.banki.ru/banks/bank/sberbank/branches/barnaul/,13326641
Сбербанк — Дополнительный офис №8644/0213,Бастан,"Алтайский край, Михайловский р-н, с Бастан, ул Ленина, зд 101",Алтайский край,true,51.859528,79.47045,https://www.banki.ru/banks/bank/sberbank/branches/altayskiy_kray/bastan/,13290879
Сбербанк — Дополнительный офис №8644/0256,Безрукавка,"Алтайский край, Рубцовский р-н, с Безрукавка, ул Центральная, влд 11",Алтайский край,true,51.583784,81.282388,https://www.banki.ru/banks/bank/sberbank/branches/altayskiy_kray/bezrukavka/,13290892
Сбербанк — Дополнительный офис №8644/0323,Белоглазово,"Алтайский край, Шипуновский р-н, с Белоглазово, ул Школьная, д 35",Алтайский край,true,52.116032,82.565254,https://www.banki.ru/banks/bank/sberbank/branches/altayskiy_kray/beloglazovo/,13290928
Сбербанк — Дополнительный офис №8644/0549,Белокуриха,"Алтайский край, г Белокуриха, ул Академика Мясникова, влд 6",Алтайский край,true,51.992851,84.97718,https://www.banki.ru/banks/bank/sberbank/branches/altayskiy_kray/belokuriha/,13291042
Сбербанк — Дополнительный офис №8644/0459,Березовка,"Алтайский край, Краснощековский р-н, с Березовка, ул Гагарина, влд 11",Алтайский край,true,51.845214,82.957379,https://www.banki.ru/banks/bank/sberbank/branches/altayskiy_kray/berezovka_(krasnosschekovskiy_r-n)/,13290999
Сбербанк — Дополнительный офис №8644/0758,Березовка,"Алтайский край, Первомайский р-н, с Березовка, ул 40 лет Победы, влд 44",Алтайский край,true,53.406487,83.998983,https://www.banki.ru/banks/bank/sberbank/branches/altayskiy_kray/berezovka_(pervomayskiy_r-n)/,13291148
Сбербанк — Дополнительный офис №8644/0334,Бийск,"Алтайский край, г Бийск, ул Владимира Ленина, д 244",Алтайский край,true,52.542814,85.221386,https://www.banki.ru/banks/bank/sberbank/branches/altayskiy_kray/biysk/,13290933
Сбербанк — Дополнительный офис №8644/0347,Бийск,"Алтайский край, г Бийск, ул Михаила Митрофанова, влд 12",Алтайский край,true,52.532907,85.181255,https://www.banki.ru/banks/bank/sberbank/branches/altayskiy_kray/biysk/,13290943
Сбербанк — Дополнительный офис №8644/0350,Бийск,"Алтайский край, г Бийск, ул Социалистическая, влд 34/1",Алтайский край,true,52.495255,85.141406,https://www.banki.ru/banks/bank/sberbank/branches/altayskiy_kray/biysk/,13290945
Сбербанк — Дополнительный офис №8644/0384,Бийск,"Алтайский край, г Бийск, ул Советская, д 219",Алтайский край,true,52.512408,85.170851,https://www.banki.ru/banks/bank/sberbank/branches/altayskiy_kray/biysk/,13290959
Сбербанк — Дополнительный офис №8644/0386,Бийск,"Алтайский край, г Бийск, ул Ленинградская, д 107",Алтайский край,true,52.513505,85.136742,https://www.banki.ru/banks/bank/sberbank/branches/altayskiy_kray/biysk/,13290960
Сбербанк — Дополнительный офис №8644/0788,Бийск,"Алтайский край, г Бийск, ул Владимира Ленина, зд 153",Алтайский край,true,52.536052,85.205015,https://www.banki.ru/banks/bank/sberbank/branches/altayskiy_kray/biysk/,13291165
Сбербанк — СберПервый,Бийск,"Алтайский край, г Бийск, ул Владимира Ленина, зд 153",Алтайский край,true,52.5361,85.205169,https://www.banki.ru/banks/bank/sberbank/branches/altayskiy_kray/biysk/,13326642
Сбербанк — Дополнительный офис №8644/0587,Благовещенка,"Алтайский край, рп Благовещенка, ул Советская, д 36",Алтайский край,true,52.831005,79.868685,https://www.banki.ru/banks/bank/sberbank/branches/altayskiy_kray/blagovesschenka/,13291061
Сбербанк — Дополнительный офис №8644/0316,Бобровка,"Алтайский край, Шипуновский р-н, с Бобровка, ул Молодежная, зд 24",Алтайский край,true,52.417592,82.131951,https://www.banki.ru/banks/bank/sberbank/branches/altayskiy_kray/bobrovka_(shipunovskiy_r-n)/,13290924
Сбербанк — Дополнительный офис №8644/0759,Бобровка,"Алтайский край, Первомайский р-н, с Бобровка, ул Ленина, стр 36",Алтайский край,true,53.168484,83.893482,https://www.banki.ru/banks/bank/sberbank/branches/altayskiy_kray/bobrovka_(pervomayskiy_r-n)/,13291149
Сбербанк — Дополнительный офис №8644/0519,Большеромановка,"Алтайский край, Табунский р-н, с Большеромановка, ул Ленина, влд 46",Алтайский край,true,52.994423,78.858463,https://www.banki.ru/banks/bank/sberbank/branches/altayskiy_kray/bol~ssheromanovka/,13291022
Сбербанк — Дополнительный офис №8644/0753,Боровиха,"Алтайский край, Первомайский р-н, с Боровиха, ул Кооперативная, д 7",Алтайский край,true,53.505544,83.841454,https://www.banki.ru/banks/bank/sberbank/branches/altayskiy_kray/boroviha/,13291143
Сбербанк — Дополнительный офис №8644/0739,Боровлянка,"Алтайский край, Троицкий р-н, с Боровлянка, ул Фефелова, зд 53",Алтайский край,true,52.635012,84.441321,https://www.banki.ru/banks/bank/sberbank/branches/altayskiy_kray/borovlyanka_(troitsskiy_r-n)/,13291139
Сбербанк — Дополнительный офис №8644/0275,Боровское,"Алтайский край, Алейский р-н, с Боровское, ул Кирова, д 71",Алтайский край,true,52.652203,82.181646,https://www.banki.ru/banks/bank/sberbank/branches/altayskiy_kray/borovskoe/,13290897
Сбербанк — Дополнительный офис №8644/0301,Буканское,"Алтайский край, Мамонтовский р-н, с Буканское, ул Победы, д 48, кв 1",Алтайский край,true,52.800411,81.803914,https://www.banki.ru/banks/bank/sberbank/branches/altayskiy_kray/bukanskoe/,13290914
Сбербанк — Дополнительный офис №8644/0339,Буланиха,"Алтайский край, Зональный р-н, с Буланиха, ул Советская, д 38",Алтайский край,true,52.798729,84.923763,https://www.banki.ru/banks/bank/sberbank/branches/altayskiy_kray/bulaniha_(zonal~nyiy_r-n)/,13290936
Сбербанк — Дополнительный офис №8644/0170,Бураново,"Алтайский край, Калманский р-н, с Бураново, ул Ерушева, влд 17",Алтайский край,true,53.044076,83.602601,https://www.banki.ru/banks/bank/sberbank/branches/altayskiy_kray/buranovo_(kalmanskiy_r-n)/,13290863
Сбербанк — Дополнительный офис №8644/0524,Бурла,"Алтайский край, с Бурла, ул Ленина, д 7",Алтайский край,true,53.336514,78.328555,https://www.banki.ru/banks/bank/sberbank/branches/altayskiy_kray/burla/,13291025
Сбербанк — Дополнительный офис №8644/0422,Буян,"Алтайский край, Крутихинский р-н, с Буян, ул Целинная, влд 49А",Алтайский край,true,53.820497,81.010232,https://www.banki.ru/banks/bank/sberbank/branches/altayskiy_kray/buyan/,13290978
Сбербанк — Дополнительный офис №8644/0572,Быстрый Исток,"Алтайский край, с Быстрый Исток, ул Ленина, влд 54А",Алтайский край,true,52.372651,84.395761,https://www.banki.ru/banks/bank/sberbank/branches/altayskiy_kray/byistryiy_istok/,13291053
Сбербанк — Дополнительный офис №8644/0348,Быстрянка,"Алтайский край, Красногорский р-н, с Быстрянка, пер Мартовский, влд 6",Алтайский край,true,52.285913,85.831348,https://www.banki.ru/banks/bank/sberbank/branches/altayskiy_kray/byistryanka/,13290944
Сбербанк — Дополнительный офис №8644/0371,Верх-Катунское,"Алтайский край, Бийский р-н, с Верх-Катунское, ул Ленина, влд 23Б",Алтайский край,true,52.448747,85.432921,https://www.banki.ru/banks/bank/sberbank/branches/altayskiy_kray/verh-katunskoe/,13290953
Сбербанк — Дополнительный офис №8644/0675,Верх-Кучук,"Алтайский край, Шелаболихинский р-н, с Верх-Кучук, ул Центральная, д 34",Алтайский край,true,53.354089,82.238276,https://www.banki.ru/banks/bank/sberbank/branches/altayskiy_kray/verh-kuchuk/,13291102
Сбербанк — Дополнительный офис №8644/0593,Верх-Суетка,"Алтайский край, с Верх-Суетка, ул Ленина, зд 81",Алтайский край,true,53.303167,80.045066,https://www.banki.ru/banks/bank/sberbank/branches/altayskiy_kray/verh-suetka/,13291065
Сбербанк — Дополнительный офис №8644/0251,Веселоярск,"Алтайский край, Рубцовский р-н, с Веселоярск, пер Центральный, влд 1",Алтайский край,true,51.282518,81.109085,https://www.banki.ru/banks/bank/sberbank/branches/altayskiy_kray/veseloyarsk/,13290889
Сбербанк — Дополнительный офис №8644/0360,Воеводское,"Алтайский край, Целинный р-н, с Воеводское, пер Магистральный, д 6 литера б",Алтайский край,true,52.789458,85.603296,https://www.banki.ru/banks/bank/sberbank/branches/altayskiy_kray/voevodskoe/,13290951
Сбербанк — Дополнительный офис №8644/0245,Волчиха,"Алтайский край, с Волчиха, ул Ленина, д 260",Алтайский край,true,52.01373,80.359584,https://www.banki.ru/banks/bank/sberbank/branches/altayskiy_kray/volchiha/,13290887
Сбербанк — Дополнительный офис №8644/0424,Волчно-Бурлинское,"Алтайский край, Крутихинский р-н, с Волчно-Бурлинское, ул Бурлинская, влд 19Б",Алтайский край,true,54.054315,80.771336,https://www.banki.ru/banks/bank/sberbank/branches/altayskiy_kray/volchno-burlinskoe/,13290980
Сбербанк — Дополнительный офис №8644/0731,Вторая Каменка,"Алтайский край, Локтевский р-н, с Вторая Каменка, ул Трибунского, влд 59",Алтайский край,true,51.054087,81.755234,https://www.banki.ru/banks/bank/sberbank/branches/altayskiy_kray/vtoraya_kamenka/,13291134
Сбербанк — Дополнительный офис №8644/0413,Вылково,"Алтайский край, Тюменцевский р-н, с Вылково, пер Центральный, влд 6",Алтайский край,true,53.078148,81.422533,https://www.banki.ru/banks/bank/sberbank/branches/altayskiy_kray/vyilkovo/,13806316
Сбербанк — Дополнительный офис №8644/0479,Вяткино,"Алтайский край, Усть-Пристанский р-н, с Вяткино, ул Садовая, д 2А",Алтайский край,true,52.520583,83.623664,https://www.banki.ru/banks/bank/sberbank/branches/altayskiy_kray/vyatkino/,13291006
Сбербанк — Дополнительный офис №8644/0488,Гальбштадт,"Алтайский край, с Гальбштадт, ул Первомайская, влд 41",Алтайский край,true,53.226822,78.989722,https://www.banki.ru/banks/bank/sberbank/branches/altayskiy_kray/gal~bsshtadt/,13291010
Сбербанк — Дополнительный офис №8644/0617,Гилевка,"Алтайский край, Завьяловский р-н, с Гилевка, ул Центральная, влд 9",Алтайский край,true,52.862233,81.102545,https://www.banki.ru/banks/bank/sberbank/branches/altayskiy_kray/gilevka/,13291076
Сбербанк — Дополнительный офис №8644/0723,Гилево,"Алтайский край, Локтевский р-н, с Гилево, ул Мира, д 39",Алтайский край,true,51.131389,81.786684,https://www.banki.ru/banks/bank/sberbank/branches/altayskiy_kray/gilevo/,13291128
Сбербанк — Дополнительный офис №8644/0618,Глубокое,"Алтайский край, Завьяловский р-н, с Глубокое, ул Центральная, д 13, кв 2",Алтайский край,true,52.989573,80.68767,https://www.banki.ru/banks/bank/sberbank/branches/altayskiy_kray/glubokoe/,13291077
Сбербанк — Дополнительный офис №8644/0635,Глядень,"Алтайский край, Благовещенский р-н, с Глядень, ул Центральная, д 35",Алтайский край,true,52.762353,80.259274,https://www.banki.ru/banks/bank/sberbank/branches/altayskiy_kray/glyaden~/,13291084
Сбербанк — Дополнительный офис №8644/0644,Голуха,"Алтайский край, Заринский р-н, ст Голуха, ул Озерная, д 3",Алтайский край,true,53.844237,85.433628,https://www.banki.ru/banks/bank/sberbank/branches/altayskiy_kray/goluha/,13291087
Сбербанк — Дополнительный офис №8644/0394,Гонохово,"Алтайский край, Каменский р-н, с Гонохово, ул Советская, влд 47",Алтайский край,true,53.643029,81.532434,https://www.banki.ru/banks/bank/sberbank/branches/altayskiy_kray/gonohovo_(kamenskiy_r-n)/,13290964
Сбербанк — Дополнительный офис №8644/0620,Гонохово,"Алтайский край, Завьяловский р-н, с Гонохово, ул Центральная, д 104",Алтайский край,true,52.939225,81.294247,https://www.banki.ru/banks/bank/sberbank/branches/altayskiy_kray/gonohovo_(zav~yalovskiy_r-n)/,13291079
Сбербанк — Дополнительный офис №8644/0740,Гордеевский,"Алтайский край, Троицкий р-н, п Гордеевский, ул Центральная, д 35",Алтайский край,true,53.109056,84.677228,https://www.banki.ru/banks/bank/sberbank/branches/altayskiy_kray/gordeevskiy/,13291140
Сбербанк — Дополнительный офис №8644/0717,Горняк,"Алтайский край, г Горняк, ул Миронова, влд 101А",Алтайский край,true,51.005878,81.466163,https://www.banki.ru/banks/bank/sberbank/branches/altayskiy_kray/gornyak/,13291125
Сбербанк — Дополнительный офис №8644/0315,Горьковское,"Алтайский край, Шипуновский р-н, с Горьковское, ул Октябрьская, влд 33",Алтайский край,true,52.074207,82.129113,https://www.banki.ru/banks/bank/sberbank/branches/altayskiy_kray/gor~kovskoe/,13290923
Сбербанк — Дополнительный офис №8644/0517,Дегтярка,"Алтайский край, Немецкий национальный р-н, с Дегтярка, ул Ленина, д 57",Алтайский край,true,53.345091,79.358142,https://www.banki.ru/banks/bank/sberbank/branches/altayskiy_kray/degtyarka/,13291021
Сбербанк — Дополнительный офис №8644/0657,Дмитро-Титово,"Алтайский край, Кытмановский р-н, с Дмитро-Титово, ул Партизанская, д 2",Алтайский край,true,53.585746,85.239403,https://www.banki.ru/banks/bank/sberbank/branches/altayskiy_kray/dmitro-titovo/,13291091
Сбербанк — Дополнительный офис №8644/0420,Долганка,"Алтайский край, Крутихинский р-н, с Долганка, ул Гагарина, влд 4",Алтайский край,true,54.132577,81.044909,https://www.banki.ru/banks/bank/sberbank/branches/altayskiy_kray/dolganka/,13290976
Сбербанк — Дополнительный офис №8644/0273,Дружба,"Алтайский край, Алейский р-н, с Дружба, ул Пионерская, д 36",Алтайский край,true,52.578808,82.503833,https://www.banki.ru/banks/bank/sberbank/branches/altayskiy_kray/druzhba_(aleyskiy_r-n)/,13290896
Сбербанк — Дополнительный офис №8644/0712,Екатерининское,"Алтайский край, Третьяковский р-н, с Екатерининское, ул Титова, д 49",Алтайский край,true,50.913433,82.016841,https://www.banki.ru/banks/bank/sberbank/branches/altayskiy_kray/ekaterininskoe/,13291121
Сбербанк — Дополнительный офис №8644/0359,Еланда,"Алтайский край, Целинный р-н, с Еланда, ул Коммунистическая, зд 12",Алтайский край,true,53.189747,85.714847,https://www.banki.ru/banks/bank/sberbank/branches/altayskiy_kray/elanda/,13290950
Сбербанк — Дополнительный офис №8644/0365,Ельцовка,"Алтайский край, с Ельцовка, ул им Рыжакова, д 22",Алтайский край,true,53.253227,86.263924,https://www.banki.ru/banks/bank/sberbank/branches/altayskiy_kray/el~tssovka/,13290952
Сбербанк — Дополнительный офис №8644/0378,Енисейское,"Алтайский край, Бийский р-н, с Енисейское, ул В.Максимовой, д 20 литера а",Алтайский край,true,52.577895,85.496816,https://www.banki.ru/banks/bank/sberbank/branches/altayskiy_kray/eniseyskoe/,13290958
Сбербанк — Дополнительный офис №8644/0756,Жилино,"Алтайский край, Первомайский р-н, с Жилино, ул Ленина, д 62",Алтайский край,true,53.405864,84.30768,https://www.banki.ru/banks/bank/sberbank/branches/altayskiy_kray/zhilino/,13291146
Сбербанк — Дополнительный офис №8644/0738,Заводское,"Алтайский край, Троицкий р-н, с Заводское, ул 50 лет Октября, влд 1А",Алтайский край,true,53.073471,84.433579,https://www.banki.ru/banks/bank/sberbank/branches/altayskiy_kray/zavodskoe/,13291138
Сбербанк — Дополнительный офис №8644/0616,Завьялово,"Алтайский край, с Завьялово, ул Парфенова, влд 2А",Алтайский край,true,52.838767,80.918144,https://www.banki.ru/banks/bank/sberbank/branches/altayskiy_kray/zav~yalovo/,13291075
Сбербанк — Дополнительный офис №8644/0769,Зайцево,"Алтайский край, Тальменский р-н, с Зайцево, ул Молодежная, д 6",Алтайский край,true,53.689641,83.330726,https://www.banki.ru/banks/bank/sberbank/branches/altayskiy_kray/zaytssevo/,13291157
Сбербанк — Дополнительный офис №8644/0627,Закладное,"Алтайский край, Романовский р-н, с Закладное, ул Юбилейная, влд 2А",Алтайский край,true,52.58656,80.99624,https://www.banki.ru/banks/bank/sberbank/branches/altayskiy_kray/zakladnoe/,13291083
Сбербанк — Дополнительный офис №8644/0421,Заковряшино,"Алтайский край, Крутихинский р-н, с Заковряшино, ул Садовая, д 4",Алтайский край,true,53.894426,81.195341,https://www.banki.ru/banks/bank/sberbank/branches/altayskiy_kray/zakovryasshino/,13290977
Сбербанк — Дополнительный офис №8644/0654,Залесово,"Алтайский край, с Залесово, ул Партизанская, влд 24Б",Алтайский край,true,53.993029,84.745288,https://www.banki.ru/banks/bank/sberbank/branches/altayskiy_kray/zalesovo/,13291090
Сбербанк — Дополнительный офис №8644/0636,Заринск,"Алтайский край, г Заринск, пр-кт Строителей, влд 18",Алтайский край,true,53.70389,84.927952,https://www.banki.ru/banks/bank/sberbank/branches/altayskiy_kray/zarinsk/,13291085
Сбербанк — Дополнительный офис №8644/0253,Зеленая Дубрава,"Алтайский край, Рубцовский р-н, п Зеленая Дубрава, ул Школьная, влд 19",Алтайский край,true,51.457185,81.185358,https://www.banki.ru/banks/bank/sberbank/branches/altayskiy_kray/zelenaya_dubrava_(rubtssovskiy_r-n)/,13290891
Сбербанк — Дополнительный офис №8644/0199,Зеленая Поляна,"Алтайский край, Ключевский р-н, с Зеленая Поляна, пер Школьный, д 2",Алтайский край,true,52.400456,79.632343,https://www.banki.ru/banks/bank/sberbank/branches/altayskiy_kray/zelenaya_polyana_(klyuchevskiy_r-n)/,13290871
Сбербанк — Дополнительный офис №8644/0585,Зеленый Дол,"Алтайский край, Петропавловский р-н, с Зеленый Дол, ул Фрунзе, влд 5",Алтайский край,true,52.122704,84.133991,https://www.banki.ru/banks/bank/sberbank/branches/altayskiy_kray/zelenyiy_dol/,13291060
Сбербанк — Дополнительный офис №8644/0317,Зеркалы,"Алтайский край, Шипуновский р-н, с Зеркалы, ул Центр Села, влд 4",Алтайский край,true,52.48506,81.836707,https://www.banki.ru/banks/bank/sberbank/branches/altayskiy_kray/zerkalyi/,13290925
Сбербанк — Дополнительный офис №8644/0169,Зимари,"Алтайский край, Калманский р-н, с Зимари, ул Центральная, влд 52",Алтайский край,true,53.183867,83.465624,https://www.banki.ru/banks/bank/sberbank/branches/altayskiy_kray/zimari/,13290862
Сбербанк — Дополнительный офис №8644/0532,Златополь,"Алтайский край, Кулундинский р-н, с Златополь, ул Партизанская, влд 13",Алтайский край,true,52.628669,79.26043,https://www.banki.ru/banks/bank/sberbank/branches/altayskiy_kray/zlatopol~/,13291031
Сбербанк — Дополнительный офис №8644/0699,Змеиногорск,"Алтайский край, г Змеиногорск, ул Ленина, д 31",Алтайский край,true,51.160851,82.186901,https://www.banki.ru/banks/bank/sberbank/branches/altayskiy_kray/zmeinogorsk/,13291115
Сбербанк — Дополнительный офис №8644/0338,Зональное,"Алтайский край, с Зональное, ул Торговая, д 7",Алтайский край,true,52.669025,84.932593,https://www.banki.ru/banks/bank/sberbank/branches/altayskiy_kray/zonal~noe/,13290935
Сбербанк — Дополнительный офис №8644/0754,Зудилово,"Алтайский край, Первомайский р-н, с Зудилово, ул Новая, д 17",Алтайский край,true,53.479321,83.878429,https://www.banki.ru/banks/bank/sberbank/branches/altayskiy_kray/zudilovo_(pervomayskiy_r-n)/,13291144
Сбербанк — Дополнительный офис №8644/0541,Зятькова Речка,"Алтайский край, Хабарский р-н, с Зятькова Речка, ул Юбилейная, д 16",Алтайский край,true,53.473471,79.945683,https://www.banki.ru/banks/bank/sberbank/branches/altayskiy_kray/zyat~kova_rechka/,13291036
Сбербанк — Дополнительный офис №8644/0435,Ивановка,"Алтайский край, Курьинский р-н, с Ивановка, ул Центральная, д 39/5",Алтайский край,true,51.570568,82.026232,https://www.banki.ru/banks/bank/sberbank/branches/altayskiy_kray/ivanovka_(kur~inskiy_r-n)/,13290984
Сбербанк — Дополнительный офис №8644/0270,Кабаково,"Алтайский край, Алейский р-н, с Кабаково, ул Советская, д 13",Алтайский край,true,52.311217,82.497086,https://www.banki.ru/banks/bank/sberbank/branches/altayskiy_kray/kabakovo/,13290895
Сбербанк — Дополнительный офис №8644/0294,Кабаново,"Алтайский край, Усть-Калманский р-н, с Кабаново, ул Молодежная, д 17",Алтайский край,true,52.042937,83.109372,https://www.banki.ru/banks/bank/sberbank/branches/altayskiy_kray/kabanovo/,13290908
Сбербанк — Дополнительный офис №8644/0303,Кадниково,"Алтайский край, Мамонтовский р-н, с Кадниково, ул Партизанская, влд 73",Алтайский край,true,52.864421,81.919029,https://www.banki.ru/banks/bank/sberbank/branches/altayskiy_kray/kadnikovo/,13290916
Сбербанк — Дополнительный офис №8644/0200,Каип,"Алтайский край, Ключевский р-н, с Каип, ул Центральная, влд 24",Алтайский край,true,52.248728,79.786632,https://www.banki.ru/banks/bank/sberbank/branches/altayskiy_kray/kaip/,13290872
Сбербанк — Дополнительный офис №8644/0173,Калманка,"Алтайский край, с Калманка, ул Ленина, д 19",Алтайский край,true,52.8968,83.543093,https://www.banki.ru/banks/bank/sberbank/branches/altayskiy_kray/kalmanka/,13290865
Сбербанк — Дополнительный офис №8644/0458,Калмыцкие Мысы,"Алтайский край, Поспелихинский р-н, с Калмыцкие Мысы, ул Трактовая, зд 8",Алтайский край,true,51.892572,82.269232,https://www.banki.ru/banks/bank/sberbank/branches/altayskiy_kray/kalmyitsskie_myisyi/,13290998
Сбербанк — Дополнительный офис №8644/0393,Камень-на-Оби,"Алтайский край, г Камень-на-Оби, ул Ленина, д 72Б",Алтайский край,true,53.797312,81.348752,https://www.banki.ru/banks/bank/sberbank/branches/altayskiy_kray/kamen~-na-obi/,13290963
Сбербанк — Дополнительный офис №8644/0581,Камышенка,"Алтайский край, Петропавловский р-н, с Камышенка, ул Советская, влд 121Б",Алтайский край,true,52.008344,84.389754,https://www.banki.ru/banks/bank/sberbank/branches/altayskiy_kray/kamyisshenka_(petropavlovskiy_r-n)/,13291058
Сбербанк — Дополнительный офис №8644/0453,Карпово 2-е,"Алтайский край, Краснощековский р-н, с Карпово Второе, ул Школьная, влд 12",Алтайский край,true,51.715956,82.685233,https://www.banki.ru/banks/bank/sberbank/branches/altayskiy_kray/karpovo_2-e/,13290995
Сбербанк — Дополнительный офис №8644/0289,Кашино,"Алтайский край, Алейский р-н, с Кашино, ул Октябрьская, д 53",Алтайский край,true,52.366635,82.559145,https://www.banki.ru/banks/bank/sberbank/branches/altayskiy_kray/kasshino/,13290904
Сбербанк — Дополнительный офис №8644/0674,Киприно,"Алтайский край, Шелаболихинский р-н, с Киприно, ул Ленина, зд 1",Алтайский край,true,53.529503,82.072483,https://www.banki.ru/banks/bank/sberbank/branches/altayskiy_kray/kiprino/,13291101
Сбербанк — Дополнительный офис №8644/0449,Клепечиха,"Алтайский край, Поспелихинский р-н, с Клепечиха, ул Скок, д 80",Алтайский край,true,52.156124,81.71554,https://www.banki.ru/banks/bank/sberbank/branches/altayskiy_kray/klepechiha/,13290993
Сбербанк — Дополнительный офис №8644/0685,Клочки,"Алтайский край, Ребрихинский р-н, с Клочки, ул Павловская, влд 39",Алтайский край,true,53.180139,82.5735,https://www.banki.ru/banks/bank/sberbank/branches/altayskiy_kray/klochki/,13291109
Сбербанк — Дополнительный офис №8644/0198,Ключи,"Алтайский край, с Ключи, ул Центральная, д 14",Алтайский край,true,52.251862,79.165881,https://www.banki.ru/banks/bank/sberbank/branches/altayskiy_kray/klyuchi/,13290870
Сбербанк — Дополнительный офис №8644/0689,Колыванское,"Алтайский край, Павловский р-н, с Колыванское, ул Мира, влд 15",Алтайский край,true,53.032854,82.869684,https://www.banki.ru/banks/bank/sberbank/branches/altayskiy_kray/kolyivanskoe/,13291111
Сбербанк — Дополнительный офис №8644/0438,Колывань,"Алтайский край, Курьинский р-н, с Колывань, ул Ленина, влд 9",Алтайский край,true,51.314933,82.569817,https://www.banki.ru/banks/bank/sberbank/branches/altayskiy_kray/kolyivan~/,13290987
Сбербанк — Дополнительный офис №8644/0325,Комариха,"Алтайский край, Шипуновский р-н, с Комариха, ул Дубинина, влд 12",Алтайский край,true,51.929446,82.713718,https://www.banki.ru/banks/bank/sberbank/branches/altayskiy_kray/komariha_(shipunovskiy_r-n)/,13290930
Сбербанк — Дополнительный офис №8644/0678,Комсомольский,"Алтайский край, Павловский р-н, п Комсомольский, ул Московская, д 8",Алтайский край,true,53.270017,83.382595,https://www.banki.ru/banks/bank/sberbank/branches/altayskiy_kray/komsomol~skiy_(pavlovskiy_r-n)/,13291105
Сбербанк — Дополнительный офис №8644/0714,Корболиха,"Алтайский край, Третьяковский р-н, с Корболиха, ул Советская, д 6",Алтайский край,true,51.103136,81.966922,https://www.banki.ru/banks/bank/sberbank/branches/altayskiy_kray/korboliha/,13291123
Сбербанк — Дополнительный офис №8644/0399,Корнилово,"Алтайский край, Каменский р-н, с Корнилово, ул Каменская, д 88",Алтайский край,true,53.523272,81.06504,https://www.banki.ru/banks/bank/sberbank/branches/altayskiy_kray/kornilovo/,13290967
Сбербанк — Дополнительный офис №8644/0464,Коробейниково,"Алтайский край, Усть-Пристанский р-н, с Коробейниково, ул Степная, д 5",Алтайский край,true,52.191455,83.719501,https://www.banki.ru/banks/bank/sberbank/branches/altayskiy_kray/korobeynikovo_(ust~-pristanskiy_r-n)/,13291002
Сбербанк — Дополнительный офис №8644/0764,Косиха,"Алтайский край, с Косиха, ул Комсомольская, д 21",Алтайский край,true,53.361844,84.570671,https://www.banki.ru/banks/bank/sberbank/branches/altayskiy_kray/kosiha/,13291154
Сбербанк — Дополнительный офис №8644/0300,Костин Лог,"Алтайский край, Мамонтовский р-н, с Костин Лог, ул Солнечная, влд 8",Алтайский край,true,52.661216,82.031448,https://www.banki.ru/banks/bank/sberbank/branches/altayskiy_kray/kostin_log/,13290913
Сбербанк — Дополнительный офис №8644/0346,Красногорское,"Алтайский край, с Красногорское, ул Советская, д 99А",Алтайский край,true,52.295362,86.192827,https://www.banki.ru/banks/bank/sberbank/branches/altayskiy_kray/krasnogorskoe/,13290942
Сбербанк — Дополнительный офис №8644/0466,Краснодарское,"Алтайский край, Усть-Пристанский р-н, с Краснодарское, ул Новая, д 22",Алтайский край,true,52.118756,83.795308,https://www.banki.ru/banks/bank/sberbank/branches/altayskiy_kray/krasnodarskoe/,13291003
Сбербанк — Дополнительный офис №8644/0436,Краснознаменка,"Алтайский край, Курьинский р-н, с Краснознаменка, ул Коммунистическая, влд 15",Алтайский край,true,51.657131,82.264786,https://www.banki.ru/banks/bank/sberbank/branches/altayskiy_kray/krasnoznamenka/,13290985
Сбербанк — Дополнительный офис №8644/0448,Краснощеково,"Алтайский край, с Краснощеково, ул Садовая, зд 24",Алтайский край,true,51.670561,82.735411,https://www.banki.ru/banks/bank/sberbank/branches/altayskiy_kray/krasnosschekovo_/,13290992
Сбербанк — Дополнительный офис №8644/0743,Краснояры,"Алтайский край, Троицкий р-н, с Краснояры, пер Парковый, влд 3",Алтайский край,true,53.164961,85.293218,https://www.banki.ru/banks/bank/sberbank/branches/altayskiy_kray/krasnoyaryi/,13291141
Сбербанк — Дополнительный офис №8644/0284,Красный Партизан,"Алтайский край, Чарышский р-н, с Красный Партизан, ул Парковая, д 10",Алтайский край,true,51.379302,83.583853,https://www.banki.ru/banks/bank/sberbank/branches/altayskiy_kray/krasnyiy_partizan/,13290900
Сбербанк — Дополнительный офис №8644/0312,Красный Яр,"Алтайский край, Шипуновский р-н, с Красный Яр, ул Садовая, влд 38",Алтайский край,true,52.190482,82.360528,https://www.banki.ru/banks/bank/sberbank/branches/altayskiy_kray/krasnyiy_yar_(shipunovskiy_r-n)/,13290920
Сбербанк — Дополнительный офис №8644/0298,Крестьянка,"Алтайский край, Мамонтовский р-н, с Крестьянка, ул Луначарского, влд 65",Алтайский край,true,52.426406,81.568197,https://www.banki.ru/banks/bank/sberbank/branches/altayskiy_kray/krest~yanka/,13290912
Сбербанк — Дополнительный офис №8644/0419,Крутиха,"Алтайский край, с Крутиха, ул Ленинградская, влд 29",Алтайский край,true,53.962758,81.214331,https://www.banki.ru/banks/bank/sberbank/branches/altayskiy_kray/krutiha/,13290975
Сбербанк — Дополнительный офис №8644/0681,Крутишка,"Алтайский край, Шелаболихинский р-н, с Крутишка, ул Совхозная, зд 6",Алтайский край,true,53.462191,81.830927,https://www.banki.ru/banks/bank/sberbank/branches/altayskiy_kray/krutisshka/,13291107
Сбербанк — Дополнительный офис №8644/0700,Кузьминка,"Алтайский край, Змеиногорский р-н, с Кузьминка, ул Центральная, влд 18",Алтайский край,true,51.312045,81.944698,https://www.banki.ru/banks/bank/sberbank/branches/altayskiy_kray/kuz~minka_(zmeinogorskiy_r-n)/,13291116
Сбербанк — Дополнительный офис №8644/0530,Кулунда,"Алтайский край, Кулундинский р-н, с Кулунда, ул Первомайская, зд 20А",Алтайский край,true,52.562081,78.946812,https://www.banki.ru/banks/bank/sberbank/branches/altayskiy_kray/kulunda/,13291029
Сбербанк — Дополнительный офис №8644/0534,Кулунда,"Алтайский край, Кулундинский р-н, с Кулунда, ул Ломоносова, зд 12",Алтайский край,true,52.57552,78.935126,https://www.banki.ru/banks/bank/sberbank/branches/altayskiy_kray/kulunda/,13291033
Сбербанк — Дополнительный офис №8644/0531,Курск,"Алтайский край, Кулундинский р-н, с Курск, ул Ленина, влд 50",Алтайский край,true,52.443372,78.922037,https://www.banki.ru/banks/bank/sberbank/branches/altayskiy_kray/kursk/,13291030
Сбербанк — Дополнительный офис №8644/0676,Кучук,"Алтайский край, Шелаболихинский р-н, с Кучук, ул Михайлова, д 40",Алтайский край,true,53.440968,82.473968,https://www.banki.ru/banks/bank/sberbank/branches/altayskiy_kray/kuchuk_(shelabolihinskiy_r-n)/,13291103
Сбербанк — Дополнительный офис №8644/0567,Куяган,"Алтайский край, Алтайский р-н, с Куяган, ул Октябрьская, зд 7А",Алтайский край,true,51.69895,84.908006,https://www.banki.ru/banks/bank/sberbank/branches/altayskiy_kray/kuyagan/,13291051
Сбербанк — Дополнительный офис №8644/0660,Кытманово,"Алтайский край, с Кытманово, ул Советская, влд 26",Алтайский край,true,53.463966,85.449996,https://www.banki.ru/banks/bank/sberbank/branches/altayskiy_kray/kyitmanovo/,13291093
Сбербанк — Дополнительный офис №8644/0224,Лаптев Лог,"Алтайский край, Угловский р-н, с Лаптев Лог, ул Кооперативная, влд 11",Алтайский край,true,51.059862,80.181923,https://www.banki.ru/banks/bank/sberbank/branches/altayskiy_kray/laptev_log/,13290880
Сбербанк — Дополнительный офис №8644/0775,Ларичиха,"Алтайский край, Тальменский р-н, с Ларичиха, ул Садовая, влд 1А",Алтайский край,true,53.774672,83.042405,https://www.banki.ru/banks/bank/sberbank/branches/altayskiy_kray/larichiha/,13291160
Сбербанк — Дополнительный офис №8644/0595,Леньки,"Алтайский край, Благовещенский р-н, с Леньки, пер Совхозный, д 6 литера а",Алтайский край,true,52.937532,80.424155,https://www.banki.ru/banks/bank/sberbank/branches/altayskiy_kray/len~ki/,13291066
Сбербанк — Дополнительный офис №8644/0387,Лесное,"Алтайский край, Бийский р-н, с Лесное, ул Советская, влд 20",Алтайский край,true,52.463637,85.251355,https://www.banki.ru/banks/bank/sberbank/branches/altayskiy_kray/lesnoe/,13290961
Сбербанк — Дополнительный офис №8644/0546,Линевский,"Алтайский край, Смоленский р-н, п Линевский, пер Восточный, влд 11",Алтайский край,true,52.367806,84.977338,https://www.banki.ru/banks/bank/sberbank/branches/altayskiy_kray/linevskiy/,13291039
Сбербанк — Дополнительный офис №8644/0727,Локоть,"Алтайский край, Локтевский р-н, с Локоть, ул Советская, д 34",Алтайский край,true,51.188238,81.196122,https://www.banki.ru/banks/bank/sberbank/branches/altayskiy_kray/lokot~_(loktevskiy_r-n)/,13291131
Сбербанк — Дополнительный офис №8644/0344,Луговское,"Алтайский край, Зональный р-н, с Луговское, ул Советская, зд 18",Алтайский край,true,52.764041,85.169517,https://www.banki.ru/banks/bank/sberbank/branches/altayskiy_kray/lugovskoe/,13290940
Сбербанк — Дополнительный офис №8644/0207,Малиновое Озеро,"Алтайский край, Михайловский р-н, рп Малиновое Озеро, ул Центральная, д 37",Алтайский край,true,51.672055,79.774317,https://www.banki.ru/banks/bank/sberbank/branches/altayskiy_kray/malinovoe_ozero/,13290875
Сбербанк — Дополнительный офис №8644/0624,Малиновский,"Алтайский край, Завьяловский р-н, п Малиновский, ул Целинная, влд 16",Алтайский край,true,52.957657,80.79595,https://www.banki.ru/banks/bank/sberbank/branches/altayskiy_kray/malinovskiy/,13291080
Сбербанк — Дополнительный офис №8644/0423,Маловолчанка,"Алтайский край, Крутихинский р-н, с Маловолчанка, ул Ленина, влд 98",Алтайский край,true,54.073548,80.911175,https://www.banki.ru/banks/bank/sberbank/branches/altayskiy_kray/malovolchanka/,13290979
Сбербанк — Дополнительный офис №8644/0372,Малоенисейское,"Алтайский край, Бийский р-н, с Малоенисейское, ул Советская, зд 104",Алтайский край,true,52.571509,85.50844,https://www.banki.ru/banks/bank/sberbank/branches/altayskiy_kray/maloeniseyskoe/,13290954
Сбербанк — Дополнительный офис №8644/0374,Малоугренево,"Алтайский край, Бийский р-н, с Малоугренево, пл Щигарева, влд 1",Алтайский край,true,52.556064,85.338008,https://www.banki.ru/banks/bank/sberbank/branches/altayskiy_kray/malougrenevo/,13290956
Сбербанк — Дополнительный офис №8644/0285,Малый Бащелак,"Алтайский край, Чарышский р-н, с Малый Бащелак, ул Центральная, д 68",Алтайский край,true,51.489645,83.82612,https://www.banki.ru/banks/bank/sberbank/branches/altayskiy_kray/malyiy_basschelak/,13290901
Сбербанк — Дополнительный офис №8644/0286,Маралиха,"Алтайский край, Чарышский р-н, с Маралиха, ул Центральная, д 57",Алтайский край,true,51.694808,83.361925,https://www.banki.ru/banks/bank/sberbank/branches/altayskiy_kray/maraliha_(charyisshskiy_r-n)/,13290902
Сбербанк — Дополнительный офис №8644/0450,Маралиха,"Алтайский край, Краснощековский р-н, с Маралиха, ул Ленина, влд 3",Алтайский край,true,51.617031,82.942259,https://www.banki.ru/banks/bank/sberbank/branches/altayskiy_kray/maraliha_(krasnosschekovskiy_r-n)/,13290994
Сбербанк — Дополнительный офис №8644/0540,Мартовка,"Алтайский край, Хабарский р-н, с Мартовка, ул Ленина, влд 72",Алтайский край,true,53.440511,79.518594,https://www.banki.ru/banks/bank/sberbank/branches/altayskiy_kray/martovka/,13291035
Сбербанк — Дополнительный офис №8644/0725,Масальский,"Алтайский край, Локтевский р-н, п Масальский, ул Советская, влд 5",Алтайский край,true,50.953425,81.797679,https://www.banki.ru/banks/bank/sberbank/branches/altayskiy_kray/masal~skiy/,13291129
Сбербанк — Дополнительный офис №8644/0345,Мирный,"Алтайский край, Зональный р-н, п Мирный, ул Демина, влд 17",Алтайский край,true,52.571094,85.022268,https://www.banki.ru/banks/bank/sberbank/branches/altayskiy_kray/mirnyiy_(zonal~nyiy_r-n)/,13290941
Сбербанк — Дополнительный офис №8644/0604,Мирный,"Алтайский край, Родинский р-н, п Мирный, ул Восточная, зд 2А",Алтайский край,true,52.557845,80.17048,https://www.banki.ru/banks/bank/sberbank/branches/altayskiy_kray/mirnyiy_(rodinskiy_r-n)/,13291069
Сбербанк — Дополнительный офис №8644/0293,Михайловка,"Алтайский край, Усть-Калманский р-н, с Михайловка, ул Ленина, д 94",Алтайский край,true,51.953159,83.795811,https://www.banki.ru/banks/bank/sberbank/branches/altayskiy_kray/mihaylovka_(ust~-kalmanskiy_r-n)/,13290907
Сбербанк — Дополнительный офис №8644/0206,Михайловское,"Алтайский край, с Михайловское, ул Садовая, д 21",Алтайский край,true,51.819897,79.725886,https://www.banki.ru/banks/bank/sberbank/branches/altayskiy_kray/mihaylovskoe/,13290874
Сбербанк — Дополнительный офис №8644/0762,Налобиха,"Алтайский край, Косихинский р-н, с Налобиха, ул Тельмана, д 37",Алтайский край,true,53.197944,84.597908,https://www.banki.ru/banks/bank/sberbank/branches/altayskiy_kray/nalobiha/,13291152
Сбербанк — Дополнительный офис №8644/0321,Нечунаево,"Алтайский край, Шипуновский р-н, с Нечунаево, ул Молодежная, д 55",Алтайский край,true,52.261661,82.396739,https://www.banki.ru/banks/bank/sberbank/branches/altayskiy_kray/nechunaevo/,13290927
Сбербанк — Дополнительный офис №8644/0571,Нижнекаменка,"Алтайский край, Алтайский р-н, с Нижнекаменка, ул 60 лет Октября, д 89",Алтайский край,true,52.038763,85.377697,https://www.banki.ru/banks/bank/sberbank/branches/altayskiy_kray/nizhnekamenka/,13291052
Сбербанк — Дополнительный офис №8644/0485,Нижнеозерное,"Алтайский край, Усть-Пристанский р-н, с Нижнеозерное, ул Юбилейная, д 18",Алтайский край,true,52.222403,83.754399,https://www.banki.ru/banks/bank/sberbank/branches/altayskiy_kray/nizhneozernoe/,13291008
Сбербанк — Дополнительный офис №8644/0409,Нижнечуманка,"Алтайский край, Баевский р-н, с Нижнечуманка, ул Боровая, д 24",Алтайский край,true,53.219428,80.593892,https://www.banki.ru/banks/bank/sberbank/branches/altayskiy_kray/nizhnechumanka/,13290968
Сбербанк — Дополнительный офис №8644/0440,Николаевка,"Алтайский край, Поспелихинский р-н, с Николаевка, ул Ленинская, влд 19",Алтайский край,true,51.879851,82.063213,https://www.banki.ru/banks/bank/sberbank/branches/altayskiy_kray/nikolaevka_(pospelihinskiy_r-n)/,13290989
Сбербанк — Дополнительный офис №8644/0503,Николаевка,"Алтайский край, Немецкий национальный р-н, с Николаевка, ул Комсомольская, д 26",Алтайский край,true,53.218292,78.721434,https://www.banki.ru/banks/bank/sberbank/branches/altayskiy_kray/nikolaevka_(nemetsskiy_natssional~nyiy_r-n)/,13291015
Сбербанк — Дополнительный офис №8644/0580,Николаевка,"Алтайский край, Петропавловский р-н, с Николаевка, ул Советская, зд 48А",Алтайский край,true,52.190035,84.121985,https://www.banki.ru/banks/bank/sberbank/branches/altayskiy_kray/nikolaevka_(petropavlovskiy_r-n)/,13291057
Сбербанк — Дополнительный офис №8644/0614,Николаевка,"Алтайский край, Благовещенский р-н, с Николаевка, пер Школьный, влд 15В",Алтайский край,true,52.957103,80.172303,https://www.banki.ru/banks/bank/sberbank/branches/altayskiy_kray/nikolaevka_(blagovesschenskiy_r-n)/,13291073
Сбербанк — Дополнительный офис №8644/0560,Никольское,"Алтайский край, Советский р-н, с Никольское, ул Победы, влд 24",Алтайский край,true,52.216003,85.262517,https://www.banki.ru/banks/bank/sberbank/branches/altayskiy_kray/nikol~skoe_(sovetskiy_r-n)/,13291047
Сбербанк — Дополнительный офис №8644/0375,Новиково,"Алтайский край, Бийский р-н, с Новиково, ул Средняя, влд 27",Алтайский край,true,52.622237,85.968735,https://www.banki.ru/banks/bank/sberbank/branches/altayskiy_kray/novikovo/,13290957
Сбербанк — Дополнительный офис №8644/0447,Новичиха,"Алтайский край, с Новичиха, ул Первомайская, влд 56",Алтайский край,true,52.208438,81.394542,https://www.banki.ru/banks/bank/sberbank/branches/altayskiy_kray/novichiha/,13290991
Сбербанк — Дополнительный офис №8644/0735,Новоалтайск,"Алтайский край, г Новоалтайск, ул Космонавтов, зд 16А",Алтайский край,true,53.419131,83.93614,https://www.banki.ru/banks/bank/sberbank/branches/altayskiy_kray/novoaltaysk/,13291135
Сбербанк — Дополнительный офис №8644/0736,Новоалтайск,"Алтайский край, г Новоалтайск, ул 8 микрорайон, д 1/2",Алтайский край,true,53.411374,83.932414,https://www.banki.ru/banks/bank/sberbank/branches/altayskiy_kray/novoaltaysk/,13291136
Сбербанк — Дополнительный офис №8644/0767,Новоалтайск,"Алтайский край, г Новоалтайск, ул 22 Партсъезда, д 10",Алтайский край,true,53.392665,83.937734,https://www.banki.ru/banks/bank/sberbank/branches/altayskiy_kray/novoaltaysk/,13291155
Сбербанк — Дополнительный офис №8644/0295,Новобураново,"Алтайский край, Усть-Калманский р-н, с Новобураново, ул Октябрьская, д 7",Алтайский край,true,51.944605,83.040281,https://www.banki.ru/banks/bank/sberbank/branches/altayskiy_kray/novoburanovo/,13290909
Сбербанк — Дополнительный офис №8644/0244,Новоегорьевское,"Алтайский край, с Новоегорьевское, ул Машинцева, влд 9",Алтайский край,true,51.757301,80.891441,https://www.banki.ru/banks/bank/sberbank/branches/altayskiy_kray/novoegor~evskoe/,13290886
Сбербанк — Дополнительный офис №8644/0542,Новоильинка,"Алтайский край, Хабарский р-н, с Новоильинка, пл Победы, д 3",Алтайский край,true,53.561111,79.260324,https://www.banki.ru/banks/bank/sberbank/branches/altayskiy_kray/novoil~inka/,13291037
Сбербанк — Дополнительный офис №8644/0589,Новокулундинка,"Алтайский край, Благовещенский р-н, п Новокулундинка, ул Мира, д 38А",Алтайский край,true,53.042936,80.154499,https://www.banki.ru/banks/bank/sberbank/branches/altayskiy_kray/novokulundinka/,13291062
Сбербанк — Дополнительный офис №8644/0252,Новониколаевка,"Алтайский край, Рубцовский р-н, с Новониколаевка, ул Вовченко, влд 14",Алтайский край,true,51.355858,81.475292,https://www.banki.ru/banks/bank/sberbank/branches/altayskiy_kray/novonikolaevka/,13290890
Сбербанк — Дополнительный офис №8644/0579,Новообинка,"Алтайский край, Петропавловский р-н, с Новообинка, ул Советская, влд 108",Алтайский край,true,52.226381,84.046953,https://www.banki.ru/banks/bank/sberbank/branches/altayskiy_kray/novoobinka/,13291056
Сбербанк — Дополнительный офис №8644/0677,Новообинцево,"Алтайский край, Шелаболихинский р-н, с Новообинцево, ул Садовая, влд 1А",Алтайский край,true,53.415085,82.705211,https://www.banki.ru/banks/bank/sberbank/branches/altayskiy_kray/novoobintssevo/,13291104
Сбербанк — Дополнительный офис №8644/0772,Новоперуново,"Алтайский край, Тальменский р-н, с Новоперуново, ул Зеленая, д 8А",Алтайский край,true,53.879931,83.495221,https://www.banki.ru/banks/bank/sberbank/branches/altayskiy_kray/novoperunovo/,13291159
Сбербанк — Дополнительный офис №8644/0525,Новопесчаное,"Алтайский край, Бурлинский р-н, с Новопесчаное, ул Центральная, влд 5",Алтайский край,true,53.415091,78.515559,https://www.banki.ru/banks/bank/sberbank/branches/altayskiy_kray/novopeschanoe/,13291026
Сбербанк — Дополнительный офис №8644/0209,Новополтава,"Алтайский край, Ключевский р-н, с Новополтава, ул Пролетарская, влд 1А",Алтайский край,true,52.413038,79.340031,https://www.banki.ru/banks/bank/sberbank/branches/altayskiy_kray/novopoltava/,13290877
Сбербанк — Дополнительный офис №8644/0168,Новороманово,"Алтайский край, Калманский р-н, с Новороманово, ул Школьная, влд 13",Алтайский край,true,53.09841,83.369084,https://www.banki.ru/banks/bank/sberbank/branches/altayskiy_kray/novoromanovo/,13290861
Сбербанк — Дополнительный офис №8644/0565,Новотырышкино,"Алтайский край, Смоленский р-н, с Новотырышкино, ул Советская, влд 82А",Алтайский край,true,52.083242,84.901012,https://www.banki.ru/banks/bank/sberbank/branches/altayskiy_kray/novotyiryisshkino/,13291050
Сбербанк — Дополнительный офис №8644/0457,Новошипуново,"Алтайский край, Краснощековский р-н, с Новошипуново, пл Центральная, д 3",Алтайский край,true,51.694779,83.25855,https://www.banki.ru/banks/bank/sberbank/branches/altayskiy_kray/novosshipunovo/,13290997
Сбербанк — Дополнительный офис №8644/0410,Новоярки,"Алтайский край, Каменский р-н, с Новоярки, ул Центральная, влд 76",Алтайский край,true,53.595013,80.871884,https://www.banki.ru/banks/bank/sberbank/branches/altayskiy_kray/novoyarki/,13290969
Сбербанк — Дополнительный офис №8644/0680,Новые Зори,"Алтайский край, Павловский р-н, п Новые Зори, ул Комсомольская, зд 12",Алтайский край,true,53.245415,83.445818,https://www.banki.ru/banks/bank/sberbank/branches/altayskiy_kray/novyie_zori/,13291106
Сбербанк — Дополнительный офис №8644/0291,Огни,"Алтайский край, Усть-Калманский р-н, с Огни, ул Партизанская, влд 42",Алтайский край,true,51.909081,83.531414,https://www.banki.ru/banks/bank/sberbank/branches/altayskiy_kray/ogni/,13290906
Сбербанк — Дополнительный офис №8644/0777,Озерки,"Алтайский край, Тальменский р-н, с Озерки, ул Новая, зд 1",Алтайский край,true,53.628464,83.715061,https://www.banki.ru/banks/bank/sberbank/branches/altayskiy_kray/ozerki_(tal~menskiy_r-n)/,13291162
Сбербанк — Дополнительный офис №8644/0533,Октябрьский,"Алтайский край, Кулундинский р-н, п Октябрьский, ул Советская, влд 10",Алтайский край,true,52.565053,78.878689,https://www.banki.ru/banks/bank/sberbank/branches/altayskiy_kray/oktyabr~skiy_(kulundinskiy_r-n)/,13291032
Сбербанк — Дополнительный офис №8644/0658,Октябрьский,"Алтайский край, Кытмановский р-н, п Октябрьский, ул Советская, д 7",Алтайский край,true,53.284813,85.323575,https://www.banki.ru/banks/bank/sberbank/branches/altayskiy_kray/oktyabr~skiy_(kyitmanovskiy_r-n)/,13291092
Сбербанк — Дополнительный офис №8644/0526,Орехово,"Алтайский край, Бурлинский р-н, с Орехово, ул Титова, влд 41А",Алтайский край,true,53.129996,78.208344,https://www.banki.ru/banks/bank/sberbank/branches/altayskiy_kray/orehovo/,13291027
Сбербанк — Дополнительный офис №8644/0515,Орлово,"Алтайский край, Немецкий национальный р-н, с Орлово, ул Ленина, зд 44",Алтайский край,true,53.318322,79.235558,https://www.banki.ru/banks/bank/sberbank/branches/altayskiy_kray/orlovo/,13291019
Сбербанк — Дополнительный офис №8644/0282,Осколково,"Алтайский край, Алейский р-н, с Осколково, ул Советская, д 76",Алтайский край,true,52.32004,83.162283,https://www.banki.ru/banks/bank/sberbank/branches/altayskiy_kray/oskolkovo/,13290899
Сбербанк — Дополнительный офис №8644/0304,Островное,"Алтайский край, Мамонтовский р-н, с Островное, ул Гребенникова, влд 4",Алтайский край,true,52.686427,81.719975,https://www.banki.ru/banks/bank/sberbank/branches/altayskiy_kray/ostrovnoe/,13290917
Сбербанк — Дополнительный офис №8644/0664,Павловск,"Алтайский край, с Павловск, ул Ленина, д 32",Алтайский край,true,53.312459,82.989399,https://www.banki.ru/banks/bank/sberbank/branches/altayskiy_kray/pavlovsk/,13291095
Сбербанк — Дополнительный офис №8644/0492,Панкрушиха,"Алтайский край, с Панкрушиха, ул Зеленая, влд 5",Алтайский край,true,53.831358,80.340151,https://www.banki.ru/banks/bank/sberbank/branches/altayskiy_kray/pankrusshiha/,13291012
Сбербанк — Дополнительный офис №8644/0477,Парфеново,"Алтайский край, Топчихинский р-н, с Парфеново, ул Кирова, д 7",Алтайский край,true,52.810178,82.732566,https://www.banki.ru/banks/bank/sberbank/branches/altayskiy_kray/parfenovo/,13291004
Сбербанк — Дополнительный офис №8644/0578,Паутово,"Алтайский край, Петропавловский р-н, с Паутово, ул Ленина, д 76А",Алтайский край,true,52.216342,84.271419,https://www.banki.ru/banks/bank/sberbank/branches/altayskiy_kray/pautovo/,13291055
Сбербанк — Дополнительный офис №8644/0708,Первокаменка,"Алтайский край, Третьяковский р-н, с Первокаменка, ул Центральная, влд 38",Алтайский край,true,50.969236,82.277191,https://www.banki.ru/banks/bank/sberbank/branches/altayskiy_kray/pervokamenka/,13291120
Сбербанк — Дополнительный офис №8644/0391,Первомайское,"Алтайский край, Бийский р-н, с Первомайское, пл Мира, зд 3",Алтайский край,true,52.597021,85.25862,https://www.banki.ru/banks/bank/sberbank/branches/altayskiy_kray/pervomayskoe_(biyskiy_r-n)/,13290962
Сбербанк — Дополнительный офис №8644/0752,Первомайское,"Алтайский край, Первомайский р-н, с Первомайское, ул Центральная, зд 7Б",Алтайский край,true,53.719352,84.021201,https://www.banki.ru/banks/bank/sberbank/branches/altayskiy_kray/pervomayskoe_(pervomayskiy_r-n)/,13291142
Сбербанк — Дополнительный офис №8644/0478,Переясловка,"Алтайский край, Топчихинский р-н, с Переясловка, ул Губина, д 5",Алтайский край,true,52.884431,83.102407,https://www.banki.ru/banks/bank/sberbank/branches/altayskiy_kray/pereyaslovka/,13291005
Сбербанк — Дополнительный офис №8644/0737,Петровка,"Алтайский край, Троицкий р-н, с Петровка, ул Бабуркина, д 58Б",Алтайский край,true,53.073573,84.628552,https://www.banki.ru/banks/bank/sberbank/branches/altayskiy_kray/petrovka_(troitsskiy_r-n)/,13291137
Сбербанк — Дополнительный офис №8644/0577,Петропавловское,"Алтайский край, с Петропавловское, ул Ленина, влд 81",Алтайский край,true,52.069424,84.110338,https://www.banki.ru/banks/bank/sberbank/branches/altayskiy_kray/petropavlovskoe/,13291054
Сбербанк — Дополнительный офис №8644/0653,Пещерка,"Алтайский край, Залесовский р-н, с Пещерка, ул Совхозная, влд 6",Алтайский край,true,54.094309,84.768871,https://www.banki.ru/banks/bank/sberbank/branches/altayskiy_kray/pesscherka/,13291089
Сбербанк — Дополнительный офис №8644/0342,Плешково,"Алтайский край, Зональный р-н, с Плешково, пер Почтовый, зд 12",Алтайский край,true,52.747082,84.796139,https://www.banki.ru/banks/bank/sberbank/branches/altayskiy_kray/plesshkovo_(zonal~nyiy_r-n)/,13290938
Сбербанк — Дополнительный офис №8644/0358,Победа,"Алтайский край, Целинный р-н, с Победа, ул Ленина, д 17",Алтайский край,true,53.115564,86.022767,https://www.banki.ru/banks/bank/sberbank/branches/altayskiy_kray/pobeda/,13290949
Сбербанк — Дополнительный офис №8644/0493,Подойниково,"Алтайский край, Панкрушихинский р-н, с Подойниково, ул Комсомольская, влд 3",Алтайский край,true,53.860147,80.475188,https://www.banki.ru/banks/bank/sberbank/branches/altayskiy_kray/podoynikovo/,13291013
Сбербанк — Дополнительный офис №8644/0497,Подсосново,"Алтайский край, Немецкий национальный р-н, с Подсосново, ул Гагарина, д 82/А",Алтайский край,true,53.372235,78.917892,https://www.banki.ru/banks/bank/sberbank/branches/altayskiy_kray/podsosnovo/,13291014
Сбербанк — Дополнительный офис №8644/0204,Покровка,"Алтайский край, Ключевский р-н, с Покровка, ул Пролетарская, д 54",Алтайский край,true,52.045842,79.360659,https://www.banki.ru/banks/bank/sberbank/branches/altayskiy_kray/pokrovka_(klyuchevskiy_r-n)/,13290873
Сбербанк — Дополнительный офис №8644/0310,Покровка,"Алтайский край, Мамонтовский р-н, с Покровка, ул Калининская, влд 28",Алтайский край,true,52.77214,81.870111,https://www.banki.ru/banks/bank/sberbank/branches/altayskiy_kray/pokrovka_(mamontovskiy_r-n)/,13290918
Сбербанк — Дополнительный офис №8644/0605,Покровка,"Алтайский край, Родинский р-н, с Покровка, ул Аврамкова, зд 73",Алтайский край,true,52.763863,80.383273,https://www.banki.ru/banks/bank/sberbank/branches/altayskiy_kray/pokrovka_(rodinskiy_r-n)/,13291070
Сбербанк — Дополнительный офис №8644/0719,Покровка,"Алтайский край, Локтевский р-н, с Покровка, ул Советская, влд 28",Алтайский край,true,51.18388,81.446258,https://www.banki.ru/banks/bank/sberbank/branches/altayskiy_kray/pokrovka_(loktevskiy_r-n)/,13291126
Сбербанк — Дополнительный офис №8644/0211,Полуямки,"Алтайский край, Михайловский р-н, с Полуямки, ул Советская, зд 31",Алтайский край,true,52.077783,79.695648,https://www.banki.ru/banks/bank/sberbank/branches/altayskiy_kray/poluyamki/,13290878
Сбербанк — Дополнительный офис №8644/0398,Поперечное,"Алтайский край, Каменский р-н, с Поперечное, ул Советская, влд 17",Алтайский край,true,53.564455,80.772513,https://www.banki.ru/banks/bank/sberbank/branches/altayskiy_kray/poperechnoe_(kamenskiy_r-n)/,13290966
Сбербанк — Дополнительный офис №8644/0357,Поповичи,"Алтайский край, Целинный р-н, с Поповичи, ул Центральная, влд 79",Алтайский край,true,53.006284,86.255802,https://www.banki.ru/banks/bank/sberbank/branches/altayskiy_kray/popovichi/,13290948
Сбербанк — Дополнительный офис №8644/0319,Порожнее,"Алтайский край, Шипуновский р-н, с Порожнее, пл Центральная, д 1",Алтайский край,true,52.270116,81.924997,https://www.banki.ru/banks/bank/sberbank/branches/altayskiy_kray/porozhnee/,13290926
Сбербанк — Дополнительный офис №8644/0461,Поспелихинский,"Алтайский край, Поспелихинский р-н, п Поспелихинский, ул Свободная, зд 7",Алтайский край,true,51.873135,81.855326,https://www.banki.ru/banks/bank/sberbank/branches/altayskiy_kray/pospelihinskiy/,13291000
Сбербанк — Дополнительный офис №8644/0670,Прутской,"Алтайский край, Павловский р-н, п Прутской, ул Центральная, зд 16А",Алтайский край,true,53.313045,83.234711,https://www.banki.ru/banks/bank/sberbank/branches/altayskiy_kray/prutskoy/,13291099
Сбербанк — Дополнительный офис №8644/0425,Прыганка,"Алтайский край, Крутихинский р-н, с Прыганка, ул Молодежная, д 1А",Алтайский край,true,53.968638,80.810551,https://www.banki.ru/banks/bank/sberbank/branches/altayskiy_kray/pryiganka/,13290981
Сбербанк — Дополнительный офис №8644/0208,Ракиты,"Алтайский край, Михайловский р-н, с Ракиты, ул 100-летия, д 23",Алтайский край,true,51.841502,79.869004,https://www.banki.ru/banks/bank/sberbank/branches/altayskiy_kray/rakityi_(mihaylovskiy_r-n)/,13290876
Сбербанк — Дополнительный офис №8644/0259,Ракиты,"Алтайский край, Рубцовский р-н, с Ракиты, ул Октябрьская, влд 40А",Алтайский край,true,51.443815,80.703783,https://www.banki.ru/banks/bank/sberbank/branches/altayskiy_kray/rakityi_(rubtssovskiy_r-n)/,13290893
Сбербанк — Дополнительный офис №8644/0682,Ребриха,"Алтайский край, с Ребриха, пр-кт Победы, д 36",Алтайский край,true,53.07742,82.335581,https://www.banki.ru/banks/bank/sberbank/branches/altayskiy_kray/rebriha/,13291108
Сбербанк — Дополнительный офис №8644/0728,Ремовский,"Алтайский край, Локтевский р-н, п Ремовский, ул Комарова, влд 2",Алтайский край,true,51.131406,81.224779,https://www.banki.ru/banks/bank/sberbank/branches/altayskiy_kray/removskiy/,13291132
Сбербанк — Дополнительный офис №8644/0665,Рогозиха,"Алтайский край, Павловский р-н, с Рогозиха, ул Школьная, влд 3А",Алтайский край,true,53.25326,82.776788,https://www.banki.ru/banks/bank/sberbank/branches/altayskiy_kray/rogoziha/,13291096
Сбербанк — Дополнительный офис №8644/0314,Родино,"Алтайский край, Шипуновский р-н, с Родино, пер Советский, влд 12",Алтайский край,true,52.369778,81.990089,https://www.banki.ru/banks/bank/sberbank/branches/altayskiy_kray/rodino_(shipunovskiy_r-n)/,13290922
Сбербанк — Дополнительный офис №8644/0601,Родино,"Алтайский край, с Родино, ул Ленина, д 222",Алтайский край,true,52.494711,80.206691,https://www.banki.ru/banks/bank/sberbank/branches/altayskiy_kray/rodino/,13291068
Сбербанк — Дополнительный офис №8644/0693,Рожнев Лог,"Алтайский край, Ребрихинский р-н, с Рожнев Лог, ул Ленина, зд 40А",Алтайский край,true,52.864636,82.440774,https://www.banki.ru/banks/bank/sberbank/branches/altayskiy_kray/rozhnev_log/,13291113
Сбербанк — Дополнительный офис №8644/0228,Рубцовск,"Алтайский край, г Рубцовск, пр-кт Ленина, д 171",Алтайский край,true,51.500903,81.208372,https://www.banki.ru/banks/bank/sberbank/branches/altayskiy_kray/rubtssovsk/,13290881
Сбербанк — Дополнительный офис №8644/0234,Рубцовск,"Алтайский край, г Рубцовск, ул Комсомольская, д 68",Алтайский край,true,51.540924,81.222562,https://www.banki.ru/banks/bank/sberbank/branches/altayskiy_kray/rubtssovsk/,13290883
Сбербанк — Дополнительный офис №8644/0238,Рубцовск,"Алтайский край, г Рубцовск, ул Октябрьская, зд 2Б",Алтайский край,true,51.551482,81.231819,https://www.banki.ru/banks/bank/sberbank/branches/altayskiy_kray/rubtssovsk/,13290884
Сбербанк — Дополнительный офис №8644/0795,Рубцовск,"Алтайский край, г Рубцовск, пр-кт Ленина, д 47",Алтайский край,true,51.517351,81.213351,https://www.banki.ru/banks/bank/sberbank/branches/altayskiy_kray/rubtssovsk/,13291167
Сбербанк — Дополнительный офис №8644/0729,Саввушка,"Алтайский край, Змеиногорский р-н, с Саввушка, ул Центральная, влд 41",Алтайский край,true,51.348203,82.144758,https://www.banki.ru/banks/bank/sberbank/branches/altayskiy_kray/savvusshka/,13291133
Сбербанк — Дополнительный офис №8644/0324,Самсоново,"Алтайский край, Шипуновский р-н, с Самсоново, ул Ленина, д 17",Алтайский край,true,52.127382,82.700881,https://www.banki.ru/banks/bank/sberbank/branches/altayskiy_kray/samsonovo/,13290929
Сбербанк — Дополнительный офис №8644/0800,Санниково,"Алтайский край, Первомайский р-н, с Санниково, ул Ефремова, влд 6",Алтайский край,true,53.352093,83.97539,https://www.banki.ru/banks/bank/sberbank/branches/altayskiy_kray/sannikovo/,13291168
Сбербанк — Дополнительный офис №8644/0491,Свердловское,"Алтайский край, Хабарский р-н, с Свердловское, ул Гагарина, зд 57",Алтайский край,true,53.329125,79.67204,https://www.banki.ru/banks/bank/sberbank/branches/altayskiy_kray/sverdlovskoe/,13291011
Сбербанк — Дополнительный офис №8644/0520,Сереброполь,"Алтайский край, Табунский р-н, с Сереброполь, ул Ленина, зд 77",Алтайский край,true,52.886001,79.208293,https://www.banki.ru/banks/bank/sberbank/branches/altayskiy_kray/serebropol~/,13291023
Сбербанк — Дополнительный офис №8644/0557,Сетовка,"Алтайский край, Советский р-н, с Сетовка, ул Новая, д 29А",Алтайский край,true,52.196896,85.48065,https://www.banki.ru/banks/bank/sberbank/branches/altayskiy_kray/setovka/,13291045
Сбербанк — Дополнительный офис №8644/0626,Сидоровка,"Алтайский край, Романовский р-н, с Сидоровка, ул Советская, д 89А",Алтайский край,true,52.54737,80.752453,https://www.banki.ru/banks/bank/sberbank/branches/altayskiy_kray/sidorovka_(romanovskiy_r-n)/,13291082
Сбербанк — Дополнительный офис №8644/0487,Славгород,"Алтайский край, г Славгород, ул Володарского, д 121",Алтайский край,true,52.995082,78.644881,https://www.banki.ru/banks/bank/sberbank/branches/altayskiy_kray/slavgorod/,13291009
Сбербанк — Дополнительный офис №8644/0545,Смоленское,"Алтайский край, с Смоленское, ул Красноярская, влд 123",Алтайский край,true,52.305205,85.079968,https://www.banki.ru/banks/bank/sberbank/branches/altayskiy_kray/smolenskoe/,13291038
Сбербанк — Дополнительный офис №8644/0556,Советское,"Алтайский край, с Советское, ул Ленина, влд 89",Алтайский край,true,52.285737,85.413596,https://www.banki.ru/banks/bank/sberbank/branches/altayskiy_kray/sovetskoe/,13291044
Сбербанк — Дополнительный офис №8644/0340,Соколово,"Алтайский край, Зональный р-н, с Соколово, ул Советская, д 90Б",Алтайский край,true,52.533995,84.789887,https://www.banki.ru/banks/bank/sberbank/branches/altayskiy_kray/sokolovo_(zonal~nyiy_r-n)/,13290937
Сбербанк — Дополнительный офис №8644/0552,Солонешное,"Алтайский край, с Солонешное, ул Красноармейская, влд 5",Алтайский край,true,51.661417,84.319672,https://www.banki.ru/banks/bank/sberbank/branches/altayskiy_kray/solonesshnoe/,13291043
Сбербанк — Дополнительный офис №8644/0247,Солоновка,"Алтайский край, Волчихинский р-н, с Солоновка, ул Новая, влд 8",Алтайский край,true,52.214745,80.800136,https://www.banki.ru/banks/bank/sberbank/branches/altayskiy_kray/solonovka_(volchihinskiy_r-n)/,13290888
Сбербанк — Дополнительный офис №8644/0441,Солоновка,"Алтайский край, Новичихинский р-н, с Солоновка, ул Ленина, д 8",Алтайский край,true,51.983072,81.393419,https://www.banki.ru/banks/bank/sberbank/branches/altayskiy_kray/solonovka_(novichihinskiy_r-n)/,13290990
Сбербанк — Дополнительный офис №8644/0547,Солоновка,"Алтайский край, Смоленский р-н, с Солоновка, ул Советская, влд 31",Алтайский край,true,52.006057,84.625459,https://www.banki.ru/banks/bank/sberbank/branches/altayskiy_kray/solonovka_(smolenskiy_r-n)/,13291040
Сбербанк — Дополнительный офис №8644/0337,Солтон,"Алтайский край, с Солтон, ул Молодежная, д 50",Алтайский край,true,52.839094,86.473994,https://www.banki.ru/banks/bank/sberbank/branches/altayskiy_kray/solton/,13290934
Сбербанк — Дополнительный офис №8644/0755,Сорочий Лог,"Алтайский край, Первомайский р-н, с Сорочий Лог, ул Е.Матяш, влд 23А",Алтайский край,true,53.575529,84.146243,https://www.banki.ru/banks/bank/sberbank/branches/altayskiy_kray/sorochiy_log/,13291145
Сбербанк — Дополнительный офис №8644/0242,Сросты,"Алтайский край, Егорьевский р-н, с Сросты, ул Советская, влд 197",Алтайский край,true,51.888001,81.009766,https://www.banki.ru/banks/bank/sberbank/branches/altayskiy_kray/srostyi/,13290885
Сбербанк — Дополнительный офис №8644/0776,Станция Озерки,"Алтайский край, Тальменский р-н, ст Озерки, ул Калинина, д 25",Алтайский край,true,53.670948,83.696053,https://www.banki.ru/banks/bank/sberbank/branches/altayskiy_kray/stantssiya_ozerki/,13291161
Сбербанк — Дополнительный офис №8644/0687,станция Ребриха,"Алтайский край, Ребрихинский р-н, ст Ребриха, ул Касмалинская, влд 13",Алтайский край,true,53.013186,82.296438,https://www.banki.ru/banks/bank/sberbank/branches/altayskiy_kray/stantssiya_rebriha/,13291110
Сбербанк — Дополнительный офис №8644/0715,Староалейское,"Алтайский край, с Староалейское, ул Октябрьская, д 39А",Алтайский край,true,51.003774,82.000598,https://www.banki.ru/banks/bank/sberbank/branches/altayskiy_kray/staroaleyskoe/,13291124
Сбербанк — Дополнительный офис №8644/0611,Степное,"Алтайский край, Родинский р-н, с Степное, ул Крупской, д 8",Алтайский край,true,52.633537,80.473913,https://www.banki.ru/banks/bank/sberbank/branches/altayskiy_kray/stepnoe_(rodinskiy_r-n)/,13291072
Сбербанк — Дополнительный офис №8644/0592,Степное Озеро,"Алтайский край, Благовещенский р-н, рп Степное Озеро, ул Микитона, д 7",Алтайский край,true,52.777506,79.853375,https://www.banki.ru/banks/bank/sberbank/branches/altayskiy_kray/stepnoe_ozero/,13291064
Сбербанк — Дополнительный офис №8644/0697,Стуково,"Алтайский край, Павловский р-н, с Стуково, ул Центральная, д 89",Алтайский край,true,53.210624,83.339844,https://www.banki.ru/banks/bank/sberbank/branches/altayskiy_kray/stukovo/,13291114
Сбербанк — Дополнительный офис №8644/0598,Суворовка,"Алтайский край, Благовещенский р-н, с Суворовка, ул Советская, зд 63",Алтайский край,true,52.801161,80.122236,https://www.banki.ru/banks/bank/sberbank/branches/altayskiy_kray/suvorovka/,13291067
Сбербанк — Дополнительный офис №8644/0548,Сычевка,"Алтайский край, Смоленский р-н, с Сычевка, ул Советская, влд 87А",Алтайский край,true,52.05166,84.777541,https://www.banki.ru/banks/bank/sberbank/branches/altayskiy_kray/syichevka/,13291041
Сбербанк — Дополнительный офис №8644/0523,Табуны,"Алтайский край, с Табуны, ул Пушкина, зд 12А",Алтайский край,true,52.776743,78.788314,https://www.banki.ru/banks/bank/sberbank/branches/altayskiy_kray/tabunyi/,13291024
Сбербанк — Дополнительный офис №8644/0706,Таловка,"Алтайский край, Змеиногорский р-н, с Таловка, ул Советская, зд 59",Алтайский край,true,51.447433,81.91199,https://www.banki.ru/banks/bank/sberbank/branches/altayskiy_kray/talovka_(zmeinogorskiy_r-n)/,13291118
Сбербанк — Дополнительный офис №8644/0768,Тальменка,"Алтайский край, рп Тальменка, ул Партизанская, д 49А",Алтайский край,true,53.81676,83.557116,https://www.banki.ru/banks/bank/sberbank/branches/altayskiy_kray/tal~menka/,13291156
Сбербанк — Дополнительный офис №8644/0662,Тогул,"Алтайский край, с Тогул, ул Пролетарская, зд 21",Алтайский край,true,53.46782,85.913374,https://www.banki.ru/banks/bank/sberbank/branches/altayskiy_kray/togul/,13291094
Сбербанк — Дополнительный офис №8644/0483,Топчиха,"Алтайский край, с Топчиха, ул Привокзальная, д 42",Алтайский край,true,52.815664,83.118095,https://www.banki.ru/banks/bank/sberbank/branches/altayskiy_kray/topchiha/,13291007
Сбербанк — Дополнительный офис №8644/0707,Третьяково,"Алтайский край, Третьяковский р-н, ст Третьяково, ул Центральная, д 10А",Алтайский край,true,50.871566,81.896359,https://www.banki.ru/banks/bank/sberbank/branches/altayskiy_kray/tret~yakovo/,13291119
Сбербанк — Дополнительный офис №8644/0288,Тулата,"Алтайский край, Чарышский р-н, с Тулата, ул Центральная, д 24",Алтайский край,true,51.31272,83.424511,https://www.banki.ru/banks/bank/sberbank/branches/altayskiy_kray/tulata/,13290903
Сбербанк — Дополнительный офис №8644/0418,Тюменцево,"Алтайский край, с Тюменцево, ул Ленина, д 8",Алтайский край,true,53.317316,81.49625,https://www.banki.ru/banks/bank/sberbank/branches/altayskiy_kray/tyumentssevo/,13290974
Сбербанк — Дополнительный офис №8644/0639,Тягун,"Алтайский край, Заринский р-н, ст Тягун, ул Титова, д 11",Алтайский край,true,53.9499,85.657887,https://www.banki.ru/banks/bank/sberbank/branches/altayskiy_kray/tyagun_(zarinskiy_r-n)/,13291086
Сбербанк — Дополнительный офис №8644/0229,Угловское,"Алтайский край, с Угловское, ул Ленина, влд 25",Алтайский край,true,51.356661,80.191882,https://www.banki.ru/banks/bank/sberbank/branches/altayskiy_kray/uglovskoe/,13290882
Сбербанк — Дополнительный офис №8644/0763,Украинский,"Алтайский край, Косихинский р-н, п Украинский, ул Школьная, д 22",Алтайский край,true,53.308456,84.335797,https://www.banki.ru/banks/bank/sberbank/branches/altayskiy_kray/ukrainskiy_(kosihinskiy_r-n)/,13291153
Сбербанк — Дополнительный офис №8644/0328,Урлапово,"Алтайский край, Шипуновский р-н, с Урлапово, ул 30 лет Победы, влд 24",Алтайский край,true,52.566525,82.000088,https://www.banki.ru/banks/bank/sberbank/branches/altayskiy_kray/urlapovo/,13290932
Сбербанк — Дополнительный офис №8644/0558,Урожайное,"Алтайский край, Советский р-н, с Урожайное, ул Октябрьская, влд 8",Алтайский край,true,52.304591,85.645002,https://www.banki.ru/banks/bank/sberbank/branches/altayskiy_kray/urozhaynoe_(sovetskiy_r-n)/,13291046
Сбербанк — Дополнительный офис №8644/0277,Урюпино,"Алтайский край, Алейский р-н, с Урюпино, ул Школьная, д 26",Алтайский край,true,52.415521,82.684209,https://www.banki.ru/banks/bank/sberbank/branches/altayskiy_kray/uryupino/,13290898
Сбербанк — Дополнительный офис №8644/0720,Успенка,"Алтайский край, Локтевский р-н, с Успенка, ул Юбилейная, влд 17",Алтайский край,true,50.974811,81.532865,https://www.banki.ru/banks/bank/sberbank/branches/altayskiy_kray/uspenka_(loktevskiy_r-n)/,13291127
Сбербанк — Дополнительный офис №8644/0296,Усть-Калманка,"Алтайский край, с Усть-Калманка, ул Горького, д 55",Алтайский край,true,52.116638,83.301145,https://www.banki.ru/banks/bank/sberbank/branches/altayskiy_kray/ust~-kalmanka/,13290910
Сбербанк — Дополнительный офис №8644/0454,Усть-Козлуха,"Алтайский край, Краснощековский р-н, с Усть-Козлуха, ул Советская, влд 32",Алтайский край,true,51.623277,83.124572,https://www.banki.ru/banks/bank/sberbank/branches/altayskiy_kray/ust~-kozluha/,13290996
Сбербанк — Дополнительный офис №8644/0690,Усть-Мосиха,"Алтайский край, Ребрихинский р-н, с Усть-Мосиха, ул Советская, влд 13",Алтайский край,true,53.256366,82.015323,https://www.banki.ru/banks/bank/sberbank/branches/altayskiy_kray/ust~-mosiha/,13291112
Сбербанк — Дополнительный офис №8644/0437,Усть-Таловка,"Алтайский край, Курьинский р-н, с Усть-Таловка, ул Центральная, д 53",Алтайский край,true,51.488587,82.290633,https://www.banki.ru/banks/bank/sberbank/branches/altayskiy_kray/ust~-talovka/,13290986
Сбербанк — Дополнительный офис №8644/0463,Усть-Чарышская Пристань,"Алтайский край, с Усть-Чарышская Пристань, ул Пушкина, зд 9",Алтайский край,true,52.392099,83.672993,https://www.banki.ru/banks/bank/sberbank/branches/altayskiy_kray/ust~-charyisshskaya_pristan~/,13291001
Сбербанк — Дополнительный офис №8644/0527,Устьянка,"Алтайский край, Бурлинский р-н, с Устьянка, ул Советская, д 57",Алтайский край,true,53.451398,78.737254,https://www.banki.ru/banks/bank/sberbank/branches/altayskiy_kray/ust~yanka_(burlinskiy_r-n)/,13291028
Сбербанк — Дополнительный офис №8644/0726,Устьянка,"Алтайский край, Локтевский р-н, с Устьянка, ул Кирова, влд 49А",Алтайский край,true,51.145127,81.601888,https://www.banki.ru/banks/bank/sberbank/branches/altayskiy_kray/ust~yanka_(loktevskiy_r-n)/,13291130
Сбербанк — Дополнительный офис №8644/0373,Усятское,"Алтайский край, Бийский р-н, с Усятское, ул Советская, д 6",Алтайский край,true,52.569336,85.753366,https://www.banki.ru/banks/bank/sberbank/branches/altayskiy_kray/usyatskoe/,13290955
Сбербанк — Дополнительный офис №8644/0539,Хабары,"Алтайский край, с Хабары, ул Ленина, д 61",Алтайский край,true,53.624561,79.54413,https://www.banki.ru/banks/bank/sberbank/branches/altayskiy_kray/habaryi/,13291034
Сбербанк — Дополнительный офис №8644/0619,Харитоново,"Алтайский край, Завьяловский р-н, с Харитоново, ул Советская, влд 21",Алтайский край,true,53.02857,80.941845,https://www.banki.ru/banks/bank/sberbank/branches/altayskiy_kray/haritonovo/,13291078
Сбербанк — Дополнительный офис №8644/0313,Хлопуново,"Алтайский край, Шипуновский р-н, с Хлопуново, ул Коммунальная, д 1",Алтайский край,true,52.072696,82.029759,https://www.banki.ru/banks/bank/sberbank/branches/altayskiy_kray/hlopunovo/,13290921
Сбербанк — Дополнительный офис №8644/0354,Целинное,"Алтайский край, с Целинное, ул Советская, д 34",Алтайский край,true,53.079241,85.66197,https://www.banki.ru/banks/bank/sberbank/branches/altayskiy_kray/tselinnoe/,13290946
Сбербанк — Дополнительный офис №8644/0290,Чарышское,"Алтайский край, с Чарышское, пер Школьный, зд 12",Алтайский край,true,51.399713,83.554851,https://www.banki.ru/banks/bank/sberbank/branches/altayskiy_kray/charyisshskoe/,13290905
Сбербанк — Дополнительный офис №8644/0668,Черемное,"Алтайский край, Павловский р-н, с Черемное, ул Юбилейная, д 10",Алтайский край,true,53.174518,83.2304,https://www.banki.ru/banks/bank/sberbank/branches/altayskiy_kray/cheremnoe/,13291098
Сбербанк — Дополнительный офис №8644/0650,Черемушкино,"Алтайский край, Залесовский р-н, с Черемушкино, ул Гагарина, д 13, кв 10",Алтайский край,true,54.009068,84.30179,https://www.banki.ru/banks/bank/sberbank/branches/altayskiy_kray/cheremusshkino/,13291088
Сбербанк — Дополнительный офис №8644/0302,Черная Курья,"Алтайский край, Мамонтовский р-н, с Черная Курья, ул Советская, д 2",Алтайский край,true,52.55398,81.498388,https://www.banki.ru/banks/bank/sberbank/branches/altayskiy_kray/chernaya_kur~ya/,13290915
Сбербанк — Дополнительный офис №8644/0355,Шалап,"Алтайский край, Целинный р-н, с Шалап, ул Ленина, д 5",Алтайский край,true,53.115849,85.830872,https://www.banki.ru/banks/bank/sberbank/branches/altayskiy_kray/shalap/,13290947
Сбербанк — Дополнительный офис №8644/0416,Шарчино,"Алтайский край, Тюменцевский р-н, с Шарчино, ул Ульяновская, соор 6",Алтайский край,true,53.136787,81.750527,https://www.banki.ru/banks/bank/sberbank/branches/altayskiy_kray/sharchino/,13290973
Сбербанк — Дополнительный офис №8644/0667,Шахи,"Алтайский край, Павловский р-н, с Шахи, ул Загайнова, д 56",Алтайский край,true,53.336516,83.364611,https://www.banki.ru/banks/bank/sberbank/branches/altayskiy_kray/shahi/,13291097
Сбербанк — Дополнительный офис №8644/0672,Шелаболиха,"Алтайский край, с Шелаболиха, ул 50 лет Алтая, зд 1",Алтайский край,true,53.417307,82.599435,https://www.banki.ru/banks/bank/sberbank/branches/altayskiy_kray/shelaboliha/,13291100
Сбербанк — Дополнительный офис №8644/0606,Шимолино,"Алтайский край, Благовещенский р-н, с Шимолино, ул Центральная, зд 2",Алтайский край,true,53.001304,79.979315,https://www.banki.ru/banks/bank/sberbank/branches/altayskiy_kray/shimolino/,13291071
Сбербанк — Дополнительный офис №8644/0713,Шипуниха,"Алтайский край, Третьяковский р-н, с Шипуниха, ул Михайлова, зд 16",Алтайский край,true,50.934913,82.380883,https://www.banki.ru/banks/bank/sberbank/branches/altayskiy_kray/shipuniha/,13291122
Сбербанк — Дополнительный офис №8644/0311,Шипуново,"Алтайский край, с Шипуново, ул Советская, д 67",Алтайский край,true,52.220255,82.257927,https://www.banki.ru/banks/bank/sberbank/branches/altayskiy_kray/shipunovo/,13290919
Сбербанк — Дополнительный офис №8644/0343,Шубенка,"Алтайский край, Зональный р-н, с Шубенка, ул Ленина, влд 10",Алтайский край,true,52.637779,85.109318,https://www.banki.ru/banks/bank/sberbank/branches/altayskiy_kray/shubenka_(zonal~nyiy_r-n)/,13290939
Сбербанк — Дополнительный офис №8644/0563,Шульгинка,"Алтайский край, Советский р-н, с Шульгинка, ул Набережная, влд 26",Алтайский край,true,52.434676,85.319102,https://www.banki.ru/banks/bank/sberbank/branches/altayskiy_kray/shul~ginka/,13291048
Сбербанк — Дополнительный офис №8644/0507,Шумановка,"Алтайский край, Немецкий национальный р-н, с Шумановка, ул Ленина, зд 44",Алтайский край,true,53.25806,78.923466,https://www.banki.ru/banks/bank/sberbank/branches/altayskiy_kray/shumanovka/,13291017
Сбербанк — Дополнительный офис №8644/0511,Яровое,"Алтайский край, г Яровое, кв-л Б, д 25",Алтайский край,true,52.916451,78.566322,https://www.banki.ru/banks/bank/sberbank/branches/altayskiy_kray/yarovoe/,13291018
Сбербанк — Дополнительный офис №8644/0615,Ярославцев Лог,"Алтайский край, Родинский р-н, с Ярославцев Лог, ул Молодежная, зд 30А",Алтайский край,true,52.271354,80.090263,https://www.banki.ru/banks/bank/sberbank/branches/altayskiy_kray/yaroslavtssev_log/,13291074
Сбербанк — Дополнительный офис №8586/0301,Азей,"Иркутская обл, Тулунский р-н, с Азей, ул Привокзальная, д 4",Иркутская область,true,54.509355,100.765971,https://www.banki.ru/banks/bank/sberbank/branches/irkutskaya_oblast~/azey/,13287391
Сбербанк — Дополнительный офис №8586/0304,Алгатуй,"Иркутская обл, Тулунский р-н, с Алгатуй, ул Школьная, д 12",Иркутская область,true,54.393748,100.195301,https://www.banki.ru/banks/bank/sberbank/branches/irkutskaya_oblast~/algatuy/,13287392
Сбербанк — Дополнительный офис №8586/0329,Алексеевск,"Иркутская обл, Киренский р-н, рп Алексеевск, ул Кирпичная, стр 16",Иркутская область,true,57.838692,108.350109,https://www.banki.ru/banks/bank/sberbank/branches/irkutskaya_oblast~/alekseevsk/,13287404
Сбербанк — Дополнительный офис №8586/0344,Алмазай,"Иркутская обл, Нижнеудинский р-н, г Алзамай, ул Первомайская, д 51, кв 1",Иркутская область,true,55.556446,98.666603,https://www.banki.ru/banks/bank/sberbank/branches/irkutskaya_oblast~/almazay/,13287415
Сбербанк — Дополнительный офис №8586/0197,Ангарск,"Иркутская обл, г Ангарск, мкр 7, стр 25",Иркутская область,true,52.519708,103.866678,https://www.banki.ru/banks/bank/sberbank/branches/irkutskaya_oblast~/angarsk/,13287333
Сбербанк — Дополнительный офис №8586/0202,Ангарск,"Иркутская обл, г Ангарск, мкр 18, д 19",Иркутская область,true,52.503017,103.843154,https://www.banki.ru/banks/bank/sberbank/branches/irkutskaya_oblast~/angarsk/,13287334
Сбербанк — Дополнительный офис №8586/0203,Ангарск,"Иркутская обл, г Ангарск, кв-л 76, д 1",Иркутская область,true,52.543192,103.889999,https://www.banki.ru/banks/bank/sberbank/branches/irkutskaya_oblast~/angarsk/,13287335
Сбербанк — Дополнительный офис №8586/0204,Ангарск,"Иркутская обл, г Ангарск, тер. СНТ Березовая роща, кв-л 1-й, д 2",Иркутская область,true,52.506285,103.830383,https://www.banki.ru/banks/bank/sberbank/branches/irkutskaya_oblast~/angarsk/,13287336
Сбербанк — Дополнительный офис №8586/0206,Ангарск,"Иркутская обл, г Ангарск, мкр 12а, д 2",Иркутская область,true,52.509512,103.860931,https://www.banki.ru/banks/bank/sberbank/branches/irkutskaya_oblast~/angarsk/,13287337
Сбербанк — Дополнительный офис №8586/0209,Ангарск,"Иркутская обл, г Ангарск, кв-л 23, д 11",Иркутская область,true,52.555219,103.883167,https://www.banki.ru/banks/bank/sberbank/branches/irkutskaya_oblast~/angarsk/,13287339
Сбербанк — Дополнительный офис №8586/0372,Ангарск,"Иркутская обл, г Ангарск, кв-л 88, стр 10",Иркутская область,true,52.53391,103.892651,https://www.banki.ru/banks/bank/sberbank/branches/irkutskaya_oblast~/angarsk/,13287423
Сбербанк — СберПервый,Ангарск,"Иркутская обл, г Ангарск, мкр 7, стр 25",Иркутская область,true,52.519728,103.866698,https://www.banki.ru/banks/bank/sberbank/branches/irkutskaya_oblast~/angarsk/,13326573
Сбербанк — Дополнительный офис №8586/0186,Артемовский,"Иркутская обл, Бодайбинский р-н, рп Артемовский, ул 40 лет Победы, д 21",Иркутская область,true,58.208673,114.636924,https://www.banki.ru/banks/bank/sberbank/branches/irkutskaya_oblast~/artemovskiy/,13287328
Сбербанк — Дополнительный офис №8586/0299,Бадар,"Иркутская обл, Тулунский р-н, с Бадар, ул Перфиловская, зд 1",Иркутская область,true,54.400628,100.596795,https://www.banki.ru/banks/bank/sberbank/branches/irkutskaya_oblast~/badar/,13287388
Сбербанк — Дополнительный офис №8586/0172,Байкальск,"Иркутская обл, Слюдянский р-н, г Байкальск, мкр Гагарина, д 151В",Иркутская область,true,51.520374,104.149867,https://www.banki.ru/banks/bank/sberbank/branches/irkutskaya_oblast~/baykal~sk/,13287321
Сбербанк — Дополнительный офис №8586/0249,Балаганск,"Иркутская обл, п Балаганск, ул Кольцевая, стр 61",Иркутская область,true,54.011856,103.063739,https://www.banki.ru/banks/bank/sberbank/branches/irkutskaya_oblast~/balagansk/,13287358
Сбербанк — Дополнительный офис №8586/0187,Балахнинский,"Иркутская обл, Бодайбинский р-н, рп Балахнинский, ул Комсомольская, д 16",Иркутская область,true,58.011962,114.273681,https://www.banki.ru/banks/bank/sberbank/branches/irkutskaya_oblast~/balahninskiy/,13287329
Сбербанк — Дополнительный офис №8586/0154,Баяндай,"Иркутская обл, с Баяндай, ул Бутунаева, д 4",Иркутская область,true,53.058682,105.500438,https://www.banki.ru/banks/bank/sberbank/branches/irkutskaya_oblast~/bayanday/,13287307
Сбербанк — Дополнительный офис №8586/0222,Белореченский,"Иркутская обл, Усольский р-н, рп Белореченский, д 31",Иркутская область,true,52.812487,103.526654,https://www.banki.ru/banks/bank/sberbank/branches/irkutskaya_oblast~/belorechenskiy/,13287344
Сбербанк — Дополнительный офис №8586/0289,Березняки,"Иркутская обл, Нижнеилимский р-н, п Березняки, ул Янгеля, д 15",Иркутская область,true,56.938735,103.587849,https://www.banki.ru/banks/bank/sberbank/branches/irkutskaya_oblast~/bereznyaki/,13287381
Сбербанк — Дополнительный офис №8586/0331,Бирюсинск,"Иркутская обл, Тайшетский р-н, г Бирюсинск, ул Первомайская, д 8",Иркутская область,true,55.960558,97.82507,https://www.banki.ru/banks/bank/sberbank/branches/irkutskaya_oblast~/biryusinsk/,13287406
Сбербанк — Дополнительный офис №8586/0184,Бодайбо,"Иркутская обл, г Бодайбо, ул Урицкого, д 20",Иркутская область,true,57.848391,114.202381,https://www.banki.ru/banks/bank/sberbank/branches/irkutskaya_oblast~/bodaybo/,13287326
Сбербанк — Дополнительный офис №8586/03,Большая Речка,"Иркутская обл, Иркутский р-н, п Большая Речка, ул Ломоносова, д 24",Иркутская область,true,51.953002,104.732088,https://www.banki.ru/banks/bank/sberbank/branches/irkutskaya_oblast~/bol~sshaya_rechka/,13287389
Сбербанк — Дополнительный офис №8586/0166,Большой Луг,"Иркутская обл, Шелеховский р-н, п Большой Луг, ул Ленинская, зд 14",Иркутская область,true,52.078534,104.088426,https://www.banki.ru/banks/bank/sberbank/branches/irkutskaya_oblast~/bol~sshoy_lug/,13287317
Сбербанк — Дополнительный офис №8586/0157,Бохан,"Иркутская обл, п Бохан, ул Лесная, д 8",Иркутская область,true,53.151738,103.776274,https://www.banki.ru/banks/bank/sberbank/branches/irkutskaya_oblast~/bohan/,13287310
Сбербанк — Дополнительный офис №8586/0262,Братск,"Иркутская обл, г Братск, жилрайон Центральный, пр-кт Ленина, д 35",Иркутская область,true,56.150915,101.632092,https://www.banki.ru/banks/bank/sberbank/branches/irkutskaya_oblast~/bratsk/,13287366
Сбербанк — Дополнительный офис №8586/0265,Братск,"Иркутская обл, г Братск, жилрайон Энергетик, ул Холоднова, д 4",Иркутская область,true,56.302281,101.753863,https://www.banki.ru/banks/bank/sberbank/branches/irkutskaya_oblast~/bratsk/,13287369
Сбербанк — Дополнительный офис №8586/0270,Братск,"Иркутская обл, г Братск, жилрайон Центральный, ул Крупской, д 35А",Иркутская область,true,56.173517,101.616097,https://www.banki.ru/banks/bank/sberbank/branches/irkutskaya_oblast~/bratsk/,13287372
Сбербанк — Дополнительный офис №8586/0272,Братск,"Иркутская обл, г Братск, жилрайон Центральный, ул Мира, д 31",Иркутская область,true,56.154932,101.621614,https://www.banki.ru/banks/bank/sberbank/branches/irkutskaya_oblast~/bratsk/,13287373
Сбербанк — Дополнительный офис №8586/0273,Братск,"Иркутская обл, г Братск, жилрайон Центральный, ул Баркова, зд 19А",Иркутская область,true,56.155822,101.591991,https://www.banki.ru/banks/bank/sberbank/branches/irkutskaya_oblast~/bratsk/,13287374
Сбербанк — Дополнительный офис №8586/0277,Братск,"Иркутская обл, г Братск, жилрайон Гидростроитель, ул Сосновая, д 3Б",Иркутская область,true,56.284874,101.891176,https://www.banki.ru/banks/bank/sberbank/branches/irkutskaya_oblast~/bratsk/,13287375
Сбербанк — Дополнительный офис №8586/0280,Братск,"Иркутская обл, г Братск, жилрайон Энергетик, ул Мечтателей, д 1",Иркутская область,true,56.310698,101.738656,https://www.banki.ru/banks/bank/sberbank/branches/irkutskaya_oblast~/bratsk/,13287376
Сбербанк — СберПервый,Братск,"Иркутская обл, г Братск, жилрайон Центральный, пр-кт Ленина, д 35",Иркутская область,true,56.15105,101.632092,https://www.banki.ru/banks/bank/sberbank/branches/irkutskaya_oblast~/bratsk/,13326572
Сбербанк — Дополнительный офис №8586/0296,Будагово,"Иркутская обл, Тулунский р-н, с Будагово, ул Ленина, д 68",Иркутская область,true,54.628587,100.127003,https://www.banki.ru/banks/bank/sberbank/branches/irkutskaya_oblast~/budagovo/,13287386
Сбербанк — Дополнительный офис №8586/0343,Веселый,"Иркутская обл, Чунский р-н, п Веселый, ул Мира, д 5",Иркутская область,true,55.936294,99.58575,https://www.banki.ru/banks/bank/sberbank/branches/irkutskaya_oblast~/veselyiy/,13287414
Сбербанк — Дополнительный офис №8586/0283,Видим,"Иркутская обл, Нижнеилимский р-н, рп Видим, ул Советская, зд 29",Иркутская область,true,56.406162,103.10328,https://www.banki.ru/banks/bank/sberbank/branches/irkutskaya_oblast~/vidim/,13287377
Сбербанк — Дополнительный офис №8586/0268,Вихоревка,"Иркутская обл, Братский р-н, г Вихоревка, ул Дзержинского, д 42А",Иркутская область,true,56.123016,101.165069,https://www.banki.ru/banks/bank/sberbank/branches/irkutskaya_oblast~/vihorevka/,13287370
Сбербанк — Дополнительный офис №8586/0295,Гуран,"Иркутская обл, Тулунский р-н, с Гуран, ул Бурлова, д 26",Иркутская область,true,54.761106,100.642486,https://www.banki.ru/banks/bank/sberbank/branches/irkutskaya_oblast~/guran/,13287385
Сбербанк — Дополнительный офис №8586/0162,Еланцы,"Иркутская обл, с Еланцы, ул Кирова, д 18",Иркутская область,true,52.799372,106.406119,https://www.banki.ru/banks/bank/sberbank/branches/irkutskaya_oblast~/elantssyi/,13287315
Сбербанк — Дополнительный офис №8586/0327,Ербогачен,"Иркутская обл, с Ербогачен, ул Первомайская, зд 14",Иркутская область,true,61.273329,108.005928,https://www.banki.ru/banks/bank/sberbank/branches/irkutskaya_oblast~/erbogachen/,13287402
Сбербанк — Дополнительный офис №8586/0285,Железногорск-Илимский,"Иркутская обл, г Железногорск-Илимский, ул Янгеля, зд 16",Иркутская область,true,56.586159,104.113927,https://www.banki.ru/banks/bank/sberbank/branches/irkutskaya_oblast~/zheleznogorsk-ilimskiy/,13287378
Сбербанк — Дополнительный офис №8586/0156,Жигалово,"Иркутская обл, рп Жигалово, ул Советская, д 46",Иркутская область,true,54.809625,105.14916,https://www.banki.ru/banks/bank/sberbank/branches/irkutskaya_oblast~/zhigalovo/,13287309
Сбербанк — Дополнительный офис №8586/0250,Залари,"Иркутская обл, рп Залари, ул Ленина, д 105",Иркутская область,true,53.554292,102.494453,https://www.banki.ru/banks/bank/sberbank/branches/irkutskaya_oblast~/zalari/,13287359
Сбербанк — Дополнительный офис №8586/0240,Зима,"Иркутская обл, г Зима, пер Донской, д 1",Иркутская область,true,53.928639,102.054513,https://www.banki.ru/banks/bank/sberbank/branches/irkutskaya_oblast~/zima/,13287355
Сбербанк — Дополнительный офис №8586/0246,Зима,"Иркутская обл, г Зима, ул Ленина, д 2",Иркутская область,true,53.920592,102.047984,https://www.banki.ru/banks/bank/sberbank/branches/irkutskaya_oblast~/zima/,13287357
Сбербанк — Дополнительный офис №8586/0298,Икей,"Иркутская обл, Тулунский р-н, с Икей, ул Степанова, зд 2",Иркутская область,true,54.190606,100.084301,https://www.banki.ru/banks/bank/sberbank/branches/irkutskaya_oblast~/ikey/,13287387
Сбербанк — Дополнительный офис №8586/0109,Иркутск,"г Иркутск, мкр Юбилейный, д 47",Иркутская область,true,52.222218,104.304558,https://www.banki.ru/banks/bank/sberbank/branches/irkutsk/,13287291
Сбербанк — Дополнительный офис №8586/0110,Иркутск,"г Иркутск, пр-кт Маршала Жукова, д 5/1",Иркутская область,true,52.249601,104.354215,https://www.banki.ru/banks/bank/sberbank/branches/irkutsk/,13287292
Сбербанк — Дополнительный офис №8586/0111,Иркутск,"г Иркутск, ул Розы Люксембург, стр 215В",Иркутская область,true,52.349356,104.178078,https://www.banki.ru/banks/bank/sberbank/branches/irkutsk/,13287293
Сбербанк — Дополнительный офис №8586/0114,Иркутск,"г Иркутск, мкр Первомайский, д 27А",Иркутская область,true,52.256097,104.235204,https://www.banki.ru/banks/bank/sberbank/branches/irkutsk/,13287294
Сбербанк — Дополнительный офис №8586/0116,Иркутск,"г Иркутск, ул Советская, д 73",Иркутская область,true,52.280106,104.32887,https://www.banki.ru/banks/bank/sberbank/branches/irkutsk/,13287295
Сбербанк — Дополнительный офис №8586/0123,Иркутск,"г Иркутск, ул Баррикад, д 137",Иркутская область,true,52.291512,104.330017,https://www.banki.ru/banks/bank/sberbank/branches/irkutsk/,13287297
Сбербанк — Дополнительный офис №8586/0128,Иркутск,"г Иркутск, ул Трилиссера, д 57А",Иркутская область,true,52.273341,104.308874,https://www.banki.ru/banks/bank/sberbank/branches/irkutsk/,13287298
Сбербанк — Дополнительный офис №8586/0133,Иркутск,"г Иркутск, ул Мира, стр 100А",Иркутская область,true,52.348488,104.218003,https://www.banki.ru/banks/bank/sberbank/branches/irkutsk/,13287299
Сбербанк — Дополнительный офис №8586/0136,Иркутск,"г Иркутск, ул Дзержинского, стр 1",Иркутская область,true,52.278369,104.285219,https://www.banki.ru/banks/bank/sberbank/branches/irkutsk/,13287300
Сбербанк — Дополнительный офис №8586/0139,Иркутск,"г Иркутск, ул Новаторов, д 3 к 8",Иркутская область,true,52.354588,104.210451,https://www.banki.ru/banks/bank/sberbank/branches/irkutsk/,13287301
Сбербанк — Дополнительный офис №8586/0145,Иркутск,"г Иркутск, ул Академическая, д 18",Иркутская область,true,52.234642,104.289503,https://www.banki.ru/banks/bank/sberbank/branches/irkutsk/,13287302
Сбербанк — Дополнительный офис №8586/0146,Иркутск,"г Иркутск, ул Дзержинского, д 27А",Иркутская область,true,52.285079,104.29632,https://www.banki.ru/banks/bank/sberbank/branches/irkutsk/,13287303
Сбербанк — Дополнительный офис №8586/0148,Иркутск,"г Иркутск, ул Лермонтова, д 267/4",Иркутская область,true,52.248187,104.269877,https://www.banki.ru/banks/bank/sberbank/branches/irkutsk/,13287304
Сбербанк — Дополнительный офис №8586/0149,Иркутск,"г Иркутск, б-р Рябикова, д 20Б",Иркутская область,true,52.265716,104.208744,https://www.banki.ru/banks/bank/sberbank/branches/irkutsk/,13287305
Сбербанк — Дополнительный офис №8586/016,Иркутск,"г Иркутск, ул Декабрьских Событий, д 105А",Иркутская область,true,52.282446,104.31195,https://www.banki.ru/banks/bank/sberbank/branches/irkutsk/,13287313
Сбербанк — Дополнительный офис №8586/017,Иркутск,"г Иркутск, ул 2-я Железнодорожная, д 78",Иркутская область,true,52.278468,104.250529,https://www.banki.ru/banks/bank/sberbank/branches/irkutsk/,13287319
Сбербанк — Дополнительный офис №8586/0371,Иркутск,"г Иркутск, ул Байкальская, стр 206",Иркутская область,true,52.257579,104.327492,https://www.banki.ru/banks/bank/sberbank/branches/irkutsk/,13287422
Сбербанк — Дополнительный офис №8586/0373,Иркутск,"г Иркутск, ул Розы Люксембург, д 297А",Иркутская область,true,52.356419,104.153909,https://www.banki.ru/banks/bank/sberbank/branches/irkutsk/,13287424
Сбербанк — Дополнительный офис №8586/0379,Иркутск,"г Иркутск, ул Нижняя Набережная, д 10",Иркутская область,true,52.29335,104.287391,https://www.banki.ru/banks/bank/sberbank/branches/irkutsk/,13287425
Сбербанк — Дополнительный офис №8586/0389,Иркутск,"г Иркутск, ул Советская, д 122",Иркутская область,true,52.279044,104.319632,https://www.banki.ru/banks/bank/sberbank/branches/irkutsk/,13287427
Сбербанк — Дополнительный офис №8586/079,Иркутск,"г Иркутск, ул Лермонтова, д 90/1",Иркутская область,true,52.263073,104.259179,https://www.banki.ru/banks/bank/sberbank/branches/irkutsk/,13287428
Сбербанк — Дополнительный офис №8586/080,Иркутск,"г Иркутск, ул Розы Люксембург, д 62",Иркутская область,true,52.338339,104.198052,https://www.banki.ru/banks/bank/sberbank/branches/irkutsk/,13287429
Сбербанк — Дополнительный офис №8586/087,Иркутск,"г Иркутск, проезд Ербанова, д 6",Иркутская область,true,52.264779,104.314963,https://www.banki.ru/banks/bank/sberbank/branches/irkutsk/,13287430
Сбербанк — Дополнительный офис №8586/092,Иркутск,"г Иркутск, ул Урицкого, д 19",Иркутская область,true,52.283141,104.293016,https://www.banki.ru/banks/bank/sberbank/branches/irkutsk/,13287431
Сбербанк — СберПервый,Иркутск,"г Иркутск, ул Киевская, стр 16",Иркутская область,true,52.280325,104.288169,https://www.banki.ru/banks/bank/sberbank/branches/irkutsk/,13326574
Сбербанк — СберПервый,Иркутск,"г Иркутск, ул Нижняя Набережная, д 10",Иркутская область,true,52.29335,104.287036,https://www.banki.ru/banks/bank/sberbank/branches/irkutsk/,13326575
Сбербанк — Дополнительный офис №8586/0323,Казачинское,"Иркутская обл, с Казачинское, ул Советская, зд 35",Иркутская область,true,56.267667,107.573633,https://www.banki.ru/banks/bank/sberbank/branches/irkutskaya_oblast~/kazachinskoe/,13287400
Сбербанк — Дополнительный офис №8586/0257,Каразей,"Иркутская обл, Куйтунский р-н, с Каразей, ул Мира, д 53А",Иркутская область,true,54.355968,101.113641,https://www.banki.ru/banks/bank/sberbank/branches/irkutskaya_oblast~/karazey/,13287364
Сбербанк — Дополнительный офис №8586/0256,Карымск,"Иркутская обл, Куйтунский р-н, с Карымск, ул Советская, д 6",Иркутская область,true,54.105442,101.852631,https://www.banki.ru/banks/bank/sberbank/branches/irkutskaya_oblast~/karyimsk/,13287363
Сбербанк — Дополнительный офис №8586/0155,Качуг,"Иркутская обл, рп Качуг, ул Победы, д 4",Иркутская область,true,53.961694,105.87623,https://www.banki.ru/banks/bank/sberbank/branches/irkutskaya_oblast~/kachug/,13287308
Сбербанк — Дополнительный офис №8586/0333,Квиток,"Иркутская обл, Тайшетский р-н, рп Квиток, ул Октябрьская, д 10",Иркутская область,true,56.078026,98.481083,https://www.banki.ru/banks/bank/sberbank/branches/irkutskaya_oblast~/kvitok/,13287408
Сбербанк — Дополнительный офис №8586/0239,Кимильтей,"Иркутская обл, Зиминский р-н, с Кимильтей, ул Чкалова, зд 70",Иркутская область,true,54.134846,101.979437,https://www.banki.ru/banks/bank/sberbank/branches/irkutskaya_oblast~/kimil~tey/,13287354
Сбербанк — Дополнительный офис №8586/0325,Киренск,"Иркутская обл, г Киренск, мкр Центральный, ул И.Соснина, стр 14",Иркутская область,true,57.778247,108.115811,https://www.banki.ru/banks/bank/sberbank/branches/irkutskaya_oblast~/kirensk/,13287401
Сбербанк — Дополнительный офис №8586/0185,Кропоткин,"Иркутская обл, Бодайбинский р-н, рп Кропоткин, ул Ленина, д 11",Иркутская область,true,58.507267,115.304038,https://www.banki.ru/banks/bank/sberbank/branches/irkutskaya_oblast~/kropotkin/,13287327
Сбербанк — Дополнительный офис №8586/0252,Куйтун,"Иркутская обл, рп Куйтун, ул Красного Октября, зд 28",Иркутская область,true,54.354577,101.521326,https://www.banki.ru/banks/bank/sberbank/branches/irkutskaya_oblast~/kuytun/,13806313
Сбербанк — Дополнительный офис №8586/0173,Култук,"Иркутская обл, Слюдянский р-н, рп Култук, ул Октябрьская, зд 17",Иркутская область,true,51.725268,103.711835,https://www.banki.ru/banks/bank/sberbank/branches/irkutskaya_oblast~/kultuk/,13287322
Сбербанк — Дополнительный офис №8586/0258,Кундуй,"Иркутская обл, Куйтунский р-н, с Кундуй, пер Советский, стр 2А",Иркутская область,true,54.339899,101.265806,https://www.banki.ru/banks/bank/sberbank/branches/irkutskaya_oblast~/kunduy/,13287365
Сбербанк — Дополнительный офис №8586/0232,Кутулик,"Иркутская обл, п Кутулик, ул Матвеева, зд 23А",Иркутская область,true,53.347519,102.792866,https://www.banki.ru/banks/bank/sberbank/branches/irkutskaya_oblast~/kutulik/,13287350
Сбербанк — Дополнительный офис №8586/0341,Лесогорск,"Иркутская обл, Чунский р-н, рп Лесогорск, ул Гагарина, д 10",Иркутская область,true,56.052572,99.52639,https://www.banki.ru/banks/bank/sberbank/branches/irkutskaya_oblast~/lesogorsk/,13287412
Сбербанк — Дополнительный офис №8586/0117,Листвянка,"Иркутская обл, Иркутский р-н, рп Листвянка, ул Горького, зд 49",Иркутская область,true,51.850542,104.868611,https://www.banki.ru/banks/bank/sberbank/branches/irkutskaya_oblast~/listvyanka/,13287296
Сбербанк — Дополнительный офис №8586/0321,Магистральный,"Иркутская обл, Казачинско-Ленский р-н, рп Магистральный, ул Российская, зд 1В",Иркутская область,true,56.1772,107.449503,https://www.banki.ru/banks/bank/sberbank/branches/irkutskaya_oblast~/magistral~nyiy/,13287398
Сбербанк — Дополнительный офис №8586/0328,Макарово,"Иркутская обл, Киренский р-н, с Макарово, ул Сибирская, зд 40",Иркутская область,true,57.485528,107.831448,https://www.banki.ru/banks/bank/sberbank/branches/irkutskaya_oblast~/makarovo/,13287403
Сбербанк — Дополнительный офис №8586/0193,Мама,"Иркутская обл, рп Мама, ул Октябрьская, д 25, кв 4",Иркутская область,true,58.306662,112.904631,https://www.banki.ru/banks/bank/sberbank/branches/irkutskaya_oblast~/mama/,13287332
Сбербанк — Дополнительный офис №8586/0189,Мамакан,"Иркутская обл, Бодайбинский р-н, рп Мамакан, ул Ленина, д 6",Иркутская область,true,57.818814,114.014248,https://www.banki.ru/banks/bank/sberbank/branches/irkutskaya_oblast~/mamakan/,13287331
Сбербанк — Дополнительный офис №8586/0213,Мишелевка,"Иркутская обл, Усольский р-н, рп Мишелевка, ул Лесная, д 11",Иркутская область,true,52.865381,103.183934,https://www.banki.ru/banks/bank/sberbank/branches/irkutskaya_oblast~/misshelevka/,13287341
Сбербанк — Дополнительный офис №8586/0306,Нижнеудинск,"Иркутская обл, г Нижнеудинск, ул Октябрьская, д 68",Иркутская область,true,54.90939,99.038425,https://www.banki.ru/banks/bank/sberbank/branches/irkutskaya_oblast~/nizhneudinsk/,13287393
Сбербанк — Дополнительный офис №8586/0290,Новая Игирма,"Иркутская обл, Нижнеилимский р-н, рп Новая Игирма, ул Дружбы, д 26",Иркутская область,true,57.147541,103.925889,https://www.banki.ru/banks/bank/sberbank/branches/irkutskaya_oblast~/novaya_igirma/,13390413
Сбербанк — Дополнительный офис №8586/0235,Новонукутский,"Иркутская обл, п Новонукутский, ул Гагарина, д 5/1",Иркутская область,true,53.701421,102.70705,https://www.banki.ru/banks/bank/sberbank/branches/irkutskaya_oblast~/novonukutskiy/,13287352
Сбербанк — Дополнительный офис №8586/027,Оек,"Иркутская обл, Иркутский р-н, с Оек, ул Кирова, д 100А",Иркутская область,true,52.587553,104.461554,https://www.banki.ru/banks/bank/sberbank/branches/irkutskaya_oblast~/oek/,13287371
Сбербанк — Дополнительный офис №8586/0342,Октябрьский,"Иркутская обл, Чунский р-н, рп Октябрьский, ул Октябрьская, зд 39",Иркутская область,true,56.070203,99.386351,https://www.banki.ru/banks/bank/sberbank/branches/irkutskaya_oblast~/oktyabr~skiy_(chunskiy_r-n)/,13287413
Сбербанк — Дополнительный офис №8586/0158,Олонки,"Иркутская обл, Боханский р-н, с Олонки, ул Гагарина, д 1",Иркутская область,true,52.898707,103.703333,https://www.banki.ru/banks/bank/sberbank/branches/irkutskaya_oblast~/olonki/,13287311
Сбербанк — Дополнительный офис №8586/0159,Оса,"Иркутская обл, с Оса, ул Свердлова, зд 55",Иркутская область,true,53.390159,103.879006,https://www.banki.ru/banks/bank/sberbank/branches/irkutskaya_oblast~/osa/,13287312
Сбербанк — Дополнительный офис №8586/0263,Покосное,"Иркутская обл, Братский р-н, с Покосное, ул Южная, стр 33",Иркутская область,true,55.520805,101.044352,https://www.banki.ru/banks/bank/sberbank/branches/irkutskaya_oblast~/pokosnoe/,13287367
Сбербанк — Дополнительный офис №8586/0286,Речушка,"Иркутская обл, Нижнеилимский р-н, п Речушка, д 436",Иркутская область,true,56.525968,102.871538,https://www.banki.ru/banks/bank/sberbank/branches/irkutskaya_oblast~/rechusshka/,13287379
Сбербанк — Дополнительный офис №8586/0288,Рудногорск,"Иркутская обл, Нижнеилимский р-н, рп Рудногорск, ул Вокзальная, д 12",Иркутская область,true,57.26992,103.759431,https://www.banki.ru/banks/bank/sberbank/branches/irkutskaya_oblast~/rudnogorsk/,13287380
Сбербанк — Дополнительный офис №8586/0242,Саянск,"Иркутская обл, г Саянск, мкр Олимпийский, д 27",Иркутская область,true,54.11244,102.180993,https://www.banki.ru/banks/bank/sberbank/branches/irkutskaya_oblast~/sayansk/,13287356
Сбербанк — Дополнительный офис №8586/0236,Свирск,"Иркутская обл, г Свирск, ул Лермонтова, д 2",Иркутская область,true,53.070953,103.344863,https://www.banki.ru/banks/bank/sberbank/branches/irkutskaya_oblast~/svirsk/,13287353
Сбербанк — Дополнительный офис №8586/0348,Седаново,"Иркутская обл, Усть-Илимский р-н, п Седаново, ул Кирова, д 35",Иркутская область,true,56.982576,101.309164,https://www.banki.ru/banks/bank/sberbank/branches/irkutskaya_oblast~/sedanovo/,13287417
Сбербанк — Дополнительный офис №8586/0170,Слюдянка,"Иркутская обл, г Слюдянка, ул Ленина, зд 94",Иркутская область,true,51.658222,103.71551,https://www.banki.ru/banks/bank/sberbank/branches/irkutskaya_oblast~/slyudyanka/,13287320
Сбербанк — Дополнительный офис №8586/0216,Средний,"Иркутская обл, Усольский р-н, рп Средний",Иркутская область,true,52.88546,103.487659,https://www.banki.ru/banks/bank/sberbank/branches/irkutskaya_oblast~/sredniy/,13287343
